X,Y,OBJECTID,stop_id,stop_code,stop_name,stop_desc,stop_lat,stop_lon,agency_id,jurisdiction_id,location_type,parent_station,relative_position,cardinal_direction,wheelchair_boarding,primary_street,address_range,cross_location,Route,Route_Dir,Shelter,Bench,Schedule,Light,Reaitime,PK_MD_WE
-89.302917054712537,43.142521515462015,4121,9396,9396,Hayes & Morningside (WB),This stop (#9396) is westbound on the 4652 block of Hayes Rd opposite Morningside/green Apts,43.142519,-89.302918,MMT,CMAD,0,,4,270,1,Hayes,4652,Morningside,6,,0,1,0,0,0,111
-89.330487112006679,43.113964453177765,4122,9405,9405,Wright & E Washington (NB),This stop (#9405) is northbound on the 1401 block of Wright St farside E Washington Ave,43.113962,-89.330488,MMT,CMAD,0,,1,0,1,Wright,1401,E Washington,"6, 20, 34",,0,0,1,0,0,111
-89.290477077993529,43.13435252566331,4123,9412,9412,Crossroads & 2810 (SB),This stop (#9412) is southbound on the 2910 block of Crossroads Dr adjacent 2810 Crossroads Driveway,43.13435,-89.290478,MMT,CMAD,0,,2,180,1,Crossroads,2910,2810,26,,0,0,0,0,0,111
-89.296350126864013,43.111939497090241,4124,9420,9420,N Thompson & Golden Leaf (SB),This stop (#9420) is southbound on the 920 block of Thompson Dr (N) nearside Golden Leaf Trl,43.111937,-89.296351,MMT,CMAD,0,,3,180,1,N Thompson,920,Golden Leaf,30,,0,0,0,0,0,111
-89.307341087213274,43.127492495941873,4125,9422,9422,East Towne & Independence (WB),This stop (#9422) is westbound on the 4500 block of East Towne Blvd nearside Independence Ln,43.12749,-89.307342,MMT,CMAD,0,,3,270,1,East Towne,4500,Independence,"26, 36",,0,0,0,0,0,111
-89.300459104693829,43.121165499992294,4126,9432,9432,Lien & Zeier (WB),This stop (#9432) is westbound on the 4698 block of Lien Rd farside Zeier Rd,43.121163,-89.30046,MMT,CMAD,0,,1,270,1,Lien,4698,Zeier,30,,0,0,0,0,0,111
-89.329503096964928,43.120240459469095,4127,9438,9438,Anderson & Wright (WB),This stop (#9438) is westbound on the 3400 block of Anderson St nearside Wright St,43.120238,-89.329504,MMT,CMAD,0,,3,270,1,Anderson,3400,Wright,20,,0,0,1,0,0,111
-89.298764133822644,43.108628490641422,4128,9439,9439,N Thompson & Jana (NB),This stop (#9439) is northbound on the 801 block of Thompson Dr (N) farside Jana Ln,43.108626,-89.298765,MMT,CMAD,0,,1,0,1,N Thompson,801,Jana,30,,0,0,0,0,0,111
-89.310210089700917,43.126125490677424,4129,9442,9442,Eagan & E Washington (SB),This stop (#9442) is southbound on the 1798 block of Eagan Rd farside E Washington Ave,43.126123,-89.310211,MMT,CMAD,0,,1,180,1,Eagan,1798,E Washington,6,,0,0,0,0,0,111
-89.312649078089677,43.130550490752441,4130,9463,9463,Melody & Stuart (EB),This stop (#9463) is eastbound on the 4199 block of Melody Ln nearside Stuart Ct,43.130548,-89.31265,MMT,CMAD,0,,3,90,0,Melody,4199,Stuart,6,,0,0,0,0,0,111
-89.290044049263031,43.147353538645845,4131,9472,9472,American & Eastpark (SB),This stop (#9472) is southbound on the 4598 block of American Pkwy farside Eastpark Blvd,43.147351,-89.290045,MMT,CMAD,0,,1,180,1,American,4598,Eastpark,"25, 26",,0,0,1,0,0,111
-89.302516079727539,43.131705506803399,4132,9475,9475,E Washington & E Springs (EB),This stop (#9475) is eastbound on the 4801 block of E Washington Ave farside East Springs Dr,43.131703,-89.302517,MMT,CMAD,0,,1,90,1,E Washington,4801,E Springs,26,,0,0,0,0,0,111
-89.314672128200726,43.108741470282048,4133,9479,9479,Commercial & Nakoosa (NB),This stop (#9479) is northbound on the 4098 block of Commercial Ave farside Nakoosa Trl,43.108739,-89.314673,MMT,CMAD,0,,1,0,1,Commercial,4098,Nakoosa,30,,0,0,0,0,0,111
-89.303520067105509,43.136872509272273,4134,9480,9480,Forest Run & Forest Ridge (SB),This stop (#9480) is southbound on the 4700 block of Forest Run Rd nearside Forest Ridge Way,43.13687,-89.303521,MMT,CMAD,0,,3,180,1,Forest Run,4700,Forest Ridge,6,,0,0,0,0,0,111
-89.299057035062489,43.151803529109102,4135,9486,9486,Eastpark & Biltmore (SB),This stop (#9486) is southbound on the 4701 block of Eastpark Blvd farside Biltmore Ln,43.151801,-89.299058,MMT,CMAD,0,,1,180,1,Eastpark,4701,Biltmore,26,,0,0,0,0,0,111
-89.349322071527226,43.127496436741872,4136,9488,9488,International & Elder Care (SB),This stop (#9488) is southbound on the 2800 block of International Ln adjacent Elder Care Driveway,43.127494,-89.349323,MMT,CMAD,0,,2,180,1,International,2800,Elder Care,20,,0,0,0,0,0,111
-89.317432097912473,43.121385476286662,4137,9491,9491,E Washington & Lien (EB),This stop (#9491) is eastbound on the 3901 block of E Washington Ave farside Lien Rd,43.121383,-89.317433,MMT,CMAD,0,,1,90,1,E Washington,3901,Lien,6,,0,0,0,0,0,111
-89.349731075490837,43.125732435227285,4138,9493,9493,International & American (NB),This stop (#9493) is northbound on the 2701 block of International Ln farside American Ln,43.12573,-89.349732,MMT,CMAD,0,,1,0,1,International,2701,American,20,,0,0,0,0,0,111
-89.315816064404146,43.135629490904158,4139,9494,9494,Portage & Rieder (SB),This stop (#9494) is southbound on the 3000 block of Portage Rd nearside Rieder Rd,43.135627,-89.315817,MMT,CMAD,0,,3,180,1,Portage,3000,Rieder,6,,0,0,0,0,0,111
-89.287897082832572,43.132756527675973,4140,9498,9498,City View & Wall (SB),This stop (#9498) is southbound on the 2800 block of City View Dr nearside Wall St,43.132754,-89.287898,MMT,CMAD,0,,3,180,1,City View,2800,Wall,26,,0,0,0,0,0,111
-89.284233063094888,43.142575542803023,4141,9501,9501,High Crossing & Cross Hill (EB),This stop (#9501) is eastbound on the 5499 block of High Crossing Blvd nearside Cross Hill Dr,43.142573,-89.284234,MMT,CMAD,0,,3,90,1,High Crossing,5499,Cross Hill,26,,0,0,0,0,0,111
-89.347167061515648,43.13187344341133,4142,9503,9503,International & Air Freight (NB),This stop (#9503) is northbound on the 3501 block of International Ln adjacent Air Freight Driveway,43.131871,-89.347168,MMT,PRIV,0,,2,0,0,International,3501,Air Freight,20,,0,0,0,0,0,111
-89.303455079323385,43.131607505157206,4143,9520,9520,E Washington & E Springs (WB),This stop (#9520) is westbound on the 4798 block of E Washington Ave farside East Springs Dr,43.131605,-89.303456,MMT,CMAD,0,,1,270,1,E Washington,4798,E Springs,"6, 26",,0,0,0,0,0,111
-89.315579100052091,43.121097479068254,4144,9524,9524,Lien & Parkside (WB),This stop (#9524) is westbound on the 3998 block of Lien Rd farside Parkside Dr,43.121095,-89.31558,MMT,CMAD,0,,1,270,0,Lien,3998,Parkside,20,,0,0,0,0,0,111
-89.295463055002074,43.144010527296409,4145,9527,9527,W Terrace & Eastpark (EB),This stop (#9527) is eastbound on the 5101 block of Terrace Dr (W) farside Eastpark Blvd,43.144008,-89.295464,MMT,CMAD,0,,1,90,1,W Terrace,5101,Eastpark,26,,0,0,0,0,0,111
-89.30693210294784,43.120884490981645,4146,9531,9531,Lien & Eagan (EB),This stop (#9531) is eastbound on the 4301 block of Lien Rd farside Eagan Rd,43.120882,-89.306933,MMT,CMAD,0,,1,90,1,Lien,4301,Eagan,30,,0,0,1,0,0,111
-89.337038093261526,43.120657449593082,4147,9532,9532,Anderson & Pearson (WB),This stop (#9532) is westbound on the 3100 block of Anderson St nearside Pearson St,43.120655,-89.337039,MMT,CMAD,0,,3,270,0,Anderson,3100,Pearson,20,,0,0,0,0,0,111
-89.310227079652776,43.130467493948565,4148,9545,9545,Melody & Independence (EB),This stop (#9545) is eastbound on the 4399 block of Melody Ln nearside Independence Ln,43.130465,-89.310228,MMT,CMAD,0,,3,90,1,Melody,4399,Independence,6,,0,0,1,0,0,111
-89.303288055472677,43.142307514568081,4149,9549,9549,Hayes & Morningside (EB),This stop (#9549) is eastbound on the 4665 block of Hayes Rd adjacent Morningside/green Apts,43.142305,-89.303289,MMT,CMAD,0,,2,90,1,Hayes,4665,Morningside,6,,0,1,0,0,0,111
-89.323305105533706,43.117432465353339,4150,9551,9551,E Washington & Macarthur (EB),This stop (#9551) is eastbound on the 3701 block of E Washington Ave farside Macarthur Rd,43.11743,-89.323306,MMT,CMAD,0,,1,90,1,E Washington,3701,Macarthur,"6, 20",,0,0,0,0,0,111
-89.335928120630399,43.109374442155435,4151,9552,9552,E Washington & Melvin (WB),This stop (#9552) is westbound on the 3200 block of E Washington Ave nearside Melvin Ct,43.109372,-89.335929,MMT,CMAD,0,,3,270,1,E Washington,3200,Melvin,"6, 20, 25",,1,0,1,0,0,111
-89.321908102323846,43.118828468087635,4152,9554,9554,E Washington & Mendota (WB),This stop (#9554) is westbound on the 3798 block of E Washington Ave farside Mendota St,43.118826,-89.321909,MMT,CMAD,0,,1,270,1,E Washington,3798,Mendota,"6, 20, 25",,1,0,1,0,0,111
-89.351846079743694,43.123629430663911,4153,9562,9562,International & Anderson (SB),This stop (#9562) is southbound on the 2398 block of International Ln farside Anderson St,43.123627,-89.351847,MMT,CMAD,0,,1,180,1,International,2398,Anderson,20,,0,0,0,0,0,111
-89.330637115377201,43.11233445135381,4154,9564,9564,N Fair Oaks & E Washington (SB),This stop (#9564) is southbound on the 1098 block of Fair Oaks Ave (N) farside E Washington Ave,43.112332,-89.330638,MMT,CMAD,0,,1,180,0,N Fair Oaks,1098,E Washington,34,,0,0,0,0,0,110
-89.309427083799278,43.128774494214611,4155,9566,9566,Independence & Dwight (SB),This stop (#9566) is southbound on the 2298 block of Independence Ln farside Dwight Dr,43.128772,-89.309428,MMT,CMAD,0,,1,180,1,Independence,2298,Dwight,6,,0,0,0,0,0,111
-89.300428143916406,43.103795483750034,4156,9568,9568,N Thompson & Swanton (SB),This stop (#9568) is southbound on the 498 block of Thompson Dr (N) farside Swanton Rd,43.103793,-89.300429,MMT,CMAD,0,,1,180,1,N Thompson,498,Swanton,33,,0,0,0,0,0,100
-89.32103010290075,43.118944469607506,4157,9573,9573,E Washington & Mendota (EB),This stop (#9573) is eastbound on the 3801 block of E Washington Ave farside Mendota St,43.118942,-89.321031,MMT,CMAD,0,,1,90,1,E Washington,3801,Mendota,"6, 20, 25",,0,0,1,0,0,111
-89.291064057016598,43.143925533747002,4158,9581,9581,E Terrace & Herzing (EB),This stop (#9581) is eastbound on the 5217 block of Terrace Dr (E) opposite Herzing University,43.143923,-89.291065,MMT,CMAD,0,,4,90,1,E Terrace,5217,Herzing,26,,0,0,0,0,0,111
-89.313994093724176,43.123737482964195,4159,9587,9587,E Washington & Portage (EB),This stop (#9587) is eastbound on the 4101 block of E Washington Ave farside Portage Rd,43.123735,-89.313995,MMT,CMAD,0,,1,90,1,E Washington,4101,Portage,6,,0,0,0,0,0,111
-89.308712086391793,43.127959494212689,4160,9588,9588,E Washington & Independence (WB),This stop (#9588) is westbound on the 4498 block of E Washington Ave farside Independence Ln,43.127957,-89.308713,MMT,CMAD,0,,1,270,1,E Washington,4498,Independence,"6, 25",,0,0,0,0,0,111
-89.305042136398299,43.106566480799401,4161,9591,9591,Commercial & Redland (EB),This stop (#9591) is eastbound on the 4399 block of Commercial Ave nearside Redland Dr,43.106564,-89.305043,MMT,CMAD,0,,3,90,1,Commercial,4399,Redland,30,,0,0,0,0,0,111
-89.28653703986123,43.152301548516817,4162,9595,9595,American & American Family (NB),This stop (#9595) is northbound on the 5201 block of American Pkwy farside American Family Dr,43.152299,-89.286538,MMT,CMAD,0,,1,0,0,American,5201,American Family,25,,0,0,0,0,0,100
-89.296083148169402,43.102627488686664,4163,9604,9604,N Thompson & Meadows (WB),This stop (#9604) is westbound on the 401 block of Thompson Dr (N) adjacent Meadows Apts,43.102625,-89.296084,MMT,CMAD,0,,2,270,1,N Thompson,401,Meadows,33,,0,0,0,0,0,100
-89.290344082810307,43.132400524092823,4164,9615,9615,Crossroads & Wall (NB),This stop (#9615) is northbound on the 2501 block of Crossroads Dr farside Wall St,43.132398,-89.290345,MMT,CMAD,0,,1,0,1,Crossroads,2501,Wall,26,,0,0,0,0,0,111
-89.294680093836121,43.126567512618536,4165,9620,9620,E Springs & Menards (WB),This stop (#9620) is westbound on the 2100 block of East Springs Dr adjacent Menards,43.126565,-89.294681,MMT,CMAD,0,,2,270,1,E Springs,2100,Menards,36,,0,0,0,0,0,111
-89.314376129658754,43.108382470649644,4166,9629,9629,Nakoosa & Commercial (EB),This stop (#9629) is eastbound on the 4101 block of Nakoosa Trl farside Commercial Ave,43.10838,-89.314377,MMT,CMAD,0,,1,90,1,Nakoosa,4101,Commercial,30,,0,0,0,0,0,111
-89.290013042785333,43.150263541168471,4167,9630,9630,American & Buttonwood (SB),This stop (#9630) is southbound on the 4898 block of American Pkwy farside Buttonwood Dr,43.150261,-89.290014,MMT,CMAD,0,,1,180,1,American,4898,Buttonwood,25,,0,0,0,0,0,100
-89.305994053281097,43.142542510745294,4168,9633,9633,Hayes & Portage (EB),This stop (#9633) is eastbound on the 4601 block of Hayes Rd farside Portage Rd,43.14254,-89.305995,MMT,CMAD,0,,1,90,1,Hayes,4601,Portage,6,,0,0,1,0,0,111
-89.29646611766924,43.115932500558877,4169,9636,9636,N Thompson & Oak Valley (SB),This stop (#9636) is southbound on the 1200 block of Thompson Dr (N) nearside Oak Valley Dr,43.11593,-89.296467,MMT,CMAD,0,,3,180,1,N Thompson,1200,Oak Valley,30,,0,0,0,0,0,111
-89.330717103722208,43.117169454933446,4170,9642,9642,Wright & Straubel (SB),This stop (#9642) is southbound on the 1598 block of Wright St nearside Straubel St,43.117167,-89.330718,MMT,CMAD,0,,3,180,1,Wright,1598,Straubel,"6, 20, 34",,0,0,0,0,0,111
-89.296342117511983,43.116156501082422,4171,9645,9645,N Thompson & Oak Valley (NB),This stop (#9645) is northbound on the 1201 block of Thompson Dr (N) farside Oak Valley Dr,43.116154,-89.296343,MMT,CMAD,0,,1,0,1,N Thompson,1201,Oak Valley,30,,0,0,0,0,0,111
-89.301093030136585,43.153515527671473,4172,9651,9651,Eastpark & U W Health (EB),This stop (#9651) is eastbound on the 4651 block of Eastpark Blvd opposite U W Health American Center,43.153513,-89.301094,MMT,CMAD,0,,4,90,1,Eastpark,4651,U W Health,26,,0,0,1,0,0,111
-89.300748142822272,43.104153484260358,4173,9652,9652,Swanton & N Thompson (SB),This stop (#9652) is southbound on the 398 block of Swanton Rd farside Thompson Rd (N),43.104151,-89.300749,MMT,CMAD,0,,1,180,1,Swanton,398,N Thompson,"30, 33",,1,0,1,0,0,111
-89.349797083656085,43.122527432998361,4174,9666,9666,Anderson & Pankratz (WB),This stop (#9666) is westbound on the 2298 block of Anderson St farside Pankratz St,43.122525,-89.349798,MMT,CMAD,0,,1,270,1,Anderson,2298,Pankratz,20,,0,0,0,0,0,111
-89.312834077982885,43.130765491175318,4175,9670,9670,Melody & Stuart (WB),This stop (#9670) is westbound on the 4198 block of Melody Ln farside Stuart Ct,43.130763,-89.312835,MMT,CMAD,0,,1,270,1,Melody,4198,Stuart,6,,0,0,0,0,0,111
-89.330071097416337,43.120034458445019,4176,9675,9675,Anderson & Wright (EB),This stop (#9675) is eastbound on the 3401 block of Anderson St farside Wright St,43.120032,-89.330072,MMT,CMAD,0,,1,90,1,Anderson,3401,Wright,20,,0,0,1,0,0,111
-89.308753091815589,43.12528249148054,4177,9677,9677,East Towne & Eagan (EB),This stop (#9677) is eastbound on the 4301 block of East Towne Blvd farside Eagan Rd,43.12528,-89.308754,MMT,CMAD,0,,1,90,1,East Towne,4301,Eagan,"6, 20, 30",,0,0,0,0,0,111
-89.285746027902135,43.158165555579295,4178,9684,9684,American Family & American (WB),This stop (#9684) is westbound on the 6000 block of American Family Driveway farside American Pkwy,43.158163,-89.285747,MMT,PRIV,0,,1,270,1,American Family,6000,American,25,,0,0,0,0,0,100
-89.316889099144575,43.120883477358952,4179,9685,9685,Lien & E Washington (EB),This stop (#9685) is eastbound on the 3901 block of Lien Rd farside E Washington Ave,43.120881,-89.31689,MMT,CMAD,0,,1,90,1,Lien,3901,E Washington,20,,0,0,0,0,0,111
-89.330393119669907,43.110391450895548,4180,9693,9693,N Fair Oaks & Lexington (NB),This stop (#9693) is northbound on the 899 block of Fair Oaks Ave (N) nearside Lexington Ave,43.110389,-89.330394,MMT,CMAD,0,,3,0,0,N Fair Oaks,899,Lexington,34,,0,0,0,0,0,110
-89.297647080331274,43.131987513811772,4181,9701,9701,High Crossing & E Springs (EB),This stop (#9701) is eastbound on the 4801 block of High Crossing Blvd farside East Springs Dr,43.131985,-89.297648,MMT,CMAD,0,,1,90,1,High Crossing,4801,E Springs,26,,0,0,0,0,0,111
-89.309247055937107,43.140503504275671,4182,9715,9715,Portage & Village (NB),This stop (#9715) is northbound on the 3699 block of Portage Rd nearside Village Ln,43.140501,-89.309248,MMT,CMAD,0,,3,0,1,Portage,3699,Village,6,,0,0,0,0,0,111
-89.298957033951709,43.152260530037182,4183,9717,9717,Eastpark & Biltmore (NB),This stop (#9717) is northbound on the 4698 block of Eastpark Blvd farside Biltmore Ln,43.152258,-89.298958,MMT,CMAD,0,,1,0,1,Eastpark,4698,Biltmore,26,,0,0,0,0,0,111
-89.307154101154083,43.121260490645682,4184,9719,9719,Eagan & Lien (NB),This stop (#9719) is northbound on the 1701 block of Eagan Rd farside Lien Rd,43.121258,-89.307155,MMT,CMAD,0,,1,0,1,Eagan,1701,Lien,"20, 30",,0,0,1,0,0,111
-89.290653082959963,43.132472523960743,4185,9720,9720,Crossroads & Wall (SB),This stop (#9720) is southbound on the 2500 block of Crossroads Dr nearside Wall St,43.13247,-89.290654,MMT,CMAD,0,,3,180,1,Crossroads,2500,Wall,26,,0,0,0,0,0,111
-89.31551906466683,43.135763491297851,4186,9723,9723,Portage & Rieder (NB),This stop (#9723) is northbound on the 3001 block of Portage Rd farside Rieder Rd,43.135761,-89.31552,MMT,CMAD,0,,1,0,1,Portage,3001,Rieder,6,,0,0,0,0,0,111
-89.33433309433542,43.120359452946609,4187,9724,9724,Anderson & Hoffman (WB),This stop (#9724) is westbound on the 3298 block of Anderson St farside Hoffman St,43.120357,-89.334334,MMT,CMAD,0,,1,270,1,Anderson,3298,Hoffman,20,,0,0,0,0,0,111
-89.329780083752766,43.125576462505691,4188,9725,9725,Kinsman & Wright (EB),This stop (#9725) is eastbound on the 3501 block of Kinsman Blvd farside Wright St,43.125574,-89.329781,MMT,CMAD,0,,1,90,1,Kinsman,3501,Wright,"6, 34",,0,0,0,0,0,110
-89.348778071814067,43.127406438100898,4189,9729,9729,International & Elder Care (NB),This stop (#9729) is northbound on the 2901 block of International Ln opposite Elder Care Driveway,43.127404,-89.348779,MMT,CMAD,0,,4,0,1,International,2901,Elder Care,20,,0,0,0,0,0,111
-89.309871133707063,43.106991474504746,4190,9733,9733,Walsh & Commercial (NB),This stop (#9733) is northbound on the 701 block of Walsh Rd farside Commercial Ave,43.106989,-89.309872,MMT,CMAD,0,,1,0,1,Walsh,701,Commercial,30,,0,0,0,0,0,111
-89.331139127839378,43.107079447004033,4191,9740,9740,Commercial N & N Fair Oaks (WB),This stop (#9740) is westbound on the 3398 block of Commercial Ave (N) farside Fair Oaks Ave (N),43.107077,-89.33114,MMT,CMAD,0,,1,270,1,Commercial N,3398,N Fair Oaks,17,,0,1,1,0,0,111
-89.290000042714411,43.150684541589072,4192,9744,9744,Buttonwood & American Family (WB),This stop (#9744) is westbound on the 5498 block of Buttonwood Dr farside American Family Dr,43.150682,-89.290001,MMT,CMAD,0,,1,270,1,Buttonwood,5498,American Family,26,,0,0,0,0,0,111
-89.296053126601095,43.112153497791489,4193,9745,9745,N Thompson & Golden Leaf (NB),This stop (#9745) is northbound on the 999 block of Thompson Dr (N) farside Golden Leaf Trl,43.112151,-89.296054,MMT,CMAD,0,,1,0,1,N Thompson,999,Golden Leaf,30,,0,0,0,0,0,111
-89.2915170520385,43.146173535393643,4194,9747,9747,E Terrace & Eastpark (EB),This stop (#9747) is eastbound on the 5299 block of Terrace Dr (E) nearside Eastpark Blvd,43.146171,-89.291518,MMT,CMAD,0,,3,90,1,E Terrace,5299,Eastpark,26,,0,0,0,0,0,111
-89.327422109073964,43.115332458462881,4195,9750,9750,E Washington & Schmedeman (WB),This stop (#9750) is westbound on the 3550 block of E Washington Ave farside Schmedeman Ave,43.11533,-89.327423,MMT,CMAD,0,,1,270,1,E Washington,3550,Schmedeman,6,,0,0,0,0,0,111
-89.312041128101612,43.1093034742794,4196,9753,9753,Nakoosa & Walmart (EB),This stop (#9753) is eastbound on the 4141 block of Nakoosa Trl opposite Walmart Driveway,43.109301,-89.312042,MMT,CMAD,0,,4,90,1,Nakoosa,4141,Walmart,30,,0,0,1,0,0,111
-89.309198091270261,43.125452491397091,4197,9759,9759,Eagan & East Towne (NB),This stop (#9759) is northbound on the 1751 block of Eagan Rd farside East Towne Blvd,43.12545,-89.309199,MMT,CMAD,0,,1,0,1,Eagan,1751,East Towne,6,,0,0,0,0,0,111
-89.299048133084355,43.108745490369273,4198,9770,9770,N Thompson & Jana (SB),This stop (#9770) is southbound on the 800 block of Thompson Dr (N) nearside Jana Ln,43.108743,-89.299049,MMT,CMAD,0,,3,180,1,N Thompson,800,Jana,30,,0,0,0,0,0,111
-89.310180134289226,43.106857474505603,4199,9778,9778,Walsh & Commercial (SB),This stop (#9778) is southbound on the 700 block of Walsh Rd nearside Commercial Ave,43.106855,-89.310181,MMT,CMAD,0,,3,180,1,Walsh,700,Commercial,30,,0,0,0,0,0,111
-89.307008087892839,43.12744749639225,4200,9783,9783,East Towne & Independence (EB),This stop (#9783) is eastbound on the 4501 block of East Towne Blvd farside Independence Ln,43.127445,-89.307009,MMT,CMAD,0,,1,90,1,East Towne,4501,Independence,"26, 36",,0,0,0,0,0,111
-89.288581156659674,43.099280494723452,4201,9785,9785,N Thompson & Milwaukee (NB),This stop (#9785) is northbound on the 1 block of Thompson Dr (N) farside Milwaukee St,43.099278,-89.288582,MMT,CMAD,0,,1,0,1,N Thompson,1,Milwaukee,33,,0,0,1,0,0,100
-89.32725908462433,43.12552046658643,4202,9787,9787,Kinsman & N Stoughton (EB),This stop (#9787) is eastbound on the 3647 block of Kinsman Blvd nearside Stoughton Rd (N),43.125518,-89.32726,MMT,CMAD,0,,3,90,1,Kinsman,3647,N Stoughton,"6, 34",,0,0,0,0,0,110
-89.350238077174538,43.125258434179699,4203,9790,9790,International & American (SB),This stop (#9790) is southbound on the 2698 block of International Ln farside American Ln,43.125256,-89.350239,MMT,CMAD,0,,1,180,1,International,2698,American,20,,0,0,0,0,0,111
-89.323306085801164,43.125509472326009,4204,9797,9797,Kinsman & Bartillon (EB),This stop (#9797) is eastbound on the 3701 block of Kinsman Blvd nearside Bartillon Dr,43.125507,-89.323307,MMT,CMAD,0,,3,90,1,Kinsman,3701,Bartillon,"6, 20",,0,0,0,0,0,111
-89.287742075597919,43.136105531052152,4205,9799,9799,City View & Burke (NB),This stop (#9799) is northbound on the 3101 block of City View Dr farside Burke Rd,43.136103,-89.287743,MMT,CMAD,0,,1,0,1,City View,3101,Burke,26,,0,0,0,0,0,111
-89.330677119000228,43.110803451080841,4206,9802,9802,N Fair Oaks & Lexington (SB),This stop (#9802) is southbound on the 900 block of Fair Oaks Ave (N) nearside Lexington Ave,43.110801,-89.330678,MMT,CMAD,0,,3,180,0,N Fair Oaks,900,Lexington,34,,0,0,0,0,0,110
-89.285271035817686,43.154601552810725,4207,9803,9803,American & Tancho (NB),This stop (#9803) is northbound on the 5599 block of American Pkwy nearside Tancho Dr,43.154599,-89.285272,MMT,CMAD,0,,3,0,0,American,5599,Tancho,25,,0,0,0,0,0,100
-89.310889088392955,43.126430490135732,4208,9810,9810,E Washington & Eagan (WB),This stop (#9810) is westbound on the 4298 block of E Washington Ave farside Eagan Rd,43.126428,-89.31089,MMT,CMAD,0,,1,270,1,E Washington,4298,Eagan,6,,1,0,1,0,0,111
-89.301420149444255,43.101388480614212,4209,9811,9811,Swanton & Easley (NB),This stop (#9811) is northbound on the 115 block of Swanton Rd nearside Easley Ln,43.101386,-89.301421,MMT,CMAD,0,,3,0,1,Swanton,115,Easley,"30, 33",,0,0,0,0,0,111
-89.312522128011736,43.109303473440313,4210,9812,9812,Nakoosa & Walmart (WB),This stop (#9812) is westbound on the 4198 block of Nakoosa Trl adjacent Walmart Driveway,43.109301,-89.312523,MMT,CMAD,0,,2,270,1,Nakoosa,4198,Walmart,30,,0,0,1,0,0,111
-89.348307068066603,43.129035439921971,4211,9817,9817,International & Darwin (NB),This stop (#9817) is northbound on the 3101 block of International Ln farside Darwin Rd,43.129033,-89.348308,MMT,CMAD,0,,1,0,1,International,3101,Darwin,20,,0,0,0,0,0,111
-89.284727062729019,43.142718542139072,4212,9822,9822,High Crossing & Cross Hill (WB),This stop (#9822) is westbound on the 5498 block of High Crossing Blvd farside Cross Hill Dr,43.142716,-89.284728,MMT,CMAD,0,,1,270,1,High Crossing,5498,Cross Hill,26,,0,0,0,0,0,111
-89.288028076076102,43.135559530219247,4213,9826,9826,City View & Burke (SB),This stop (#9826) is southbound on the 3098 block of City View Dr farside Burke Rd,43.135557,-89.288029,MMT,CMAD,0,,1,180,1,City View,3098,Burke,26,,0,0,0,0,0,111
-89.293312040107807,43.150893536911965,4214,9829,9829,Biltmore & Buttonwood (NB),This stop (#9829) is northbound on the 4901 block of Biltmore Ln farside Buttonwood Dr,43.150891,-89.293313,MMT,CMAD,0,,1,0,1,Biltmore,4901,Buttonwood,26,,0,0,0,0,0,111
-89.346807113639983,43.11118142995781,4215,9837,9837,Shopko & Aberg (NB),This stop (#9837) is northbound on the 2699 block of Shopko Dr farside Aberg Ave,43.111179,-89.346808,MMT,CMAD,0,,1,0,1,Shopko,2699,Aberg,"17, 20",,0,0,0,0,0,111
-89.300564065948151,43.138150515014978,4216,9842,9842,Forest Run & Hayes (WB),This stop (#9842) is westbound on the 4898 block of Forest Run Rd farside Hayes Rd,43.138148,-89.300565,MMT,CMAD,0,,1,270,1,Forest Run,4898,Hayes,6,,0,0,0,0,0,111
-89.30073113619693,43.107081486842638,4217,9844,9844,N Thompson & Commercial (SB),This stop (#9844) is southbound on the 700 block of Thompson Dr (N) nearside Commercial Ave,43.107079,-89.300732,MMT,CMAD,0,,3,180,1,N Thompson,700,Commercial,30,,0,0,0,0,0,111
-89.349501084930495,43.121953433248891,4218,9847,9847,Anderson & Pankratz (EB),This stop (#9847) is eastbound on the 2301 block of Anderson St farside Pankratz St,43.121951,-89.349502,MMT,CMAD,0,,1,90,1,Anderson,2301,Pankratz,20,,0,0,0,0,0,111
-89.310823100362754,43.121058485586254,4219,9849,9849,Lien & Thierer (EB),This stop (#9849) is eastbound on the 4201 block of Lien Rd farside Thierer Rd,43.121056,-89.310824,MMT,CMAD,0,,1,90,1,Lien,4201,Thierer,20,,0,0,1,0,0,111
-89.302188071432226,43.135599509833163,4220,9857,9857,Forest Run & Anniversary (NB),This stop (#9857) is northbound on the 4799 block of Forest Run Rd farside Anniversary Ln,43.135597,-89.302189,MMT,CMAD,0,,1,0,1,Forest Run,4799,Anniversary,6,,0,0,0,0,0,111
-89.300031094362254,43.125507504518581,4221,9863,9863,Zeier & E Springs (NB),This stop (#9863) is northbound on the 2101 block of Zeier Rd farside East Springs Dr,43.125505,-89.300032,MMT,CMAD,0,,1,0,1,Zeier,2101,E Springs,36,,0,0,0,0,0,111
-89.323787104881191,43.117657465433545,4222,9874,9874,E Washington & Macarthur (WB),This stop (#9874) is westbound on the 3700 block of E Washington Ave nearside Macarthur Rd,43.117655,-89.323788,MMT,CMAD,0,,3,270,1,E Washington,3700,Macarthur,"6, 20",,0,1,0,0,0,111
-89.301717149727324,43.101253480708245,4223,9880,9880,Swanton & Easley (SB),This stop (#9880) is southbound on the 116 block of Swanton Rd farside Easley Ln,43.101251,-89.301718,MMT,CMAD,0,,1,180,0,Swanton,116,Easley,"30, 33",,0,0,0,0,0,111
-89.296712131149832,43.109790494849413,4224,9892,9892,N Thompson & Mesta (SB),This stop (#9892) is southbound on the 828 block of Thompson Dr (N) nearside Mesta Ln,43.109788,-89.296713,MMT,CMAD,0,,3,180,1,N Thompson,828,Mesta,30,,0,0,0,0,0,111
-89.330093113596249,43.113122453095443,4225,9897,9897,E Washington & Wright (EB),This stop (#9897) is eastbound on the 3401 block of E Washington Ave farside Wright St,43.11312,-89.330094,MMT,CMAD,0,,1,90,1,E Washington,3401,Wright,6,,0,1,1,0,0,111
-89.287652030115666,43.156743550899556,4226,9900,9900,American Family & A F I Building (SB),This stop (#9900) is southbound on the 6000 block of American Family Driveway adjacent American Family Insurance,43.156741,-89.287653,MMT,PRIV,0,,2,180,1,American Family,6000,A F I Building,25,,0,0,0,0,0,100
-89.290122054666384,43.145258536038007,4227,9901,9901,E Terrace & U W Health (EB),This stop (#9901) is eastbound on the 5249 block of Terrace Dr (E) adjacent U W Health Clinic,43.145256,-89.290123,MMT,CMAD,0,,2,90,1,E Terrace,5249,U W Health,26,,0,0,0,0,0,111
-89.303177087516971,43.128035501895539,4228,9917,9917,Zeier & Shopko (NB),This stop (#9917) is northbound on the 2201 block of Zeier Rd adjacent Shopko Driveway,43.128033,-89.303178,MMT,CMAD,0,,2,0,1,Zeier,2201,Shopko,36,,0,0,0,0,0,111
-89.325888083976906,43.125878468407485,4229,9918,9918,Kinsman & N Stoughton (WB),This stop (#9918) is westbound on the 3698 block of Kinsman Blvd farside Stoughton Rd (N),43.125876,-89.325889,MMT,CMAD,0,,1,270,1,Kinsman,3698,N Stoughton,"6, 34",,0,0,0,0,0,110
-89.305041085690846,43.128860499901663,4230,9928,9928,East Towne & Zeier (WB),This stop (#9928) is westbound on the 4698 block of East Towne Blvd farside Zeier Rd,43.128858,-89.305042,MMT,CMAD,0,,1,270,1,East Towne,4698,Zeier,"26, 36",,0,0,0,0,0,111
-89.297844048496287,43.146143526379205,4231,9932,9932,Eastpark & Broadview (SB),This stop (#9932) is southbound on the 4901 block of Eastpark Blvd adjacent Broadview University,43.146141,-89.297845,MMT,CMAD,0,,2,180,0,Eastpark,4901,Broadview,26,,0,0,0,0,0,111
-89.313093059590983,43.138394496851994,4232,9939,9939,Portage & Tomscot (NB),This stop (#9939) is northbound on the 3499 block of Portage Rd nearside Tomscot Trl,43.138392,-89.313094,MMT,CMAD,0,,3,0,1,Portage,3499,Tomscot,6,,0,0,0,0,0,111
-89.295950122132922,43.11416849915225,4233,9951,9951,N Thompson & Sycamore (NB),This stop (#9951) is northbound on the 1101 block of Thompson Dr (N) farside Sycamore Ave,43.114166,-89.295951,MMT,CMAD,0,,1,0,1,N Thompson,1101,Sycamore,30,,0,0,1,0,0,111
-89.287675082147089,43.132917528906681,4234,9957,9957,City View & Wall (NB),This stop (#9957) is northbound on the 2501 block of City View Dr farside Wall St,43.132915,-89.287676,MMT,CMAD,0,,1,0,1,City View,2501,Wall,26,,0,0,0,0,0,111
-89.309816127519767,43.110053477426668,4235,9967,9967,Walsh & Nakoosa (NB),This stop (#9967) is northbound on the 899 block of Walsh Rd nearside Nakoosa Trl,43.110051,-89.309817,MMT,CMAD,0,,3,0,1,Walsh,899,Nakoosa,30,,0,0,0,0,0,111
-89.310863087478836,43.126958490697319,4236,9975,9975,Continental & E Washington (NB),This stop (#9975) is northbound on the 1901 block of Continental Ln farside E Washington Ave,43.126956,-89.310864,MMT,CMAD,0,,1,0,1,Continental,1901,E Washington,6,,0,0,0,0,0,111
-89.300515066441378,43.137917514766123,4237,9977,9977,Forest Run & Hayes (EB),This stop (#9977) is eastbound on the 4899 block of Forest Run Rd nearside Hayes Rd,43.137915,-89.300516,MMT,CMAD,0,,3,90,1,Forest Run,4899,Hayes,6,,0,0,0,0,0,111
-89.318322097765872,43.121252475453495,4238,9984,9984,E Washington & Lien (WB),This stop (#9984) is westbound on the 3898 block of E Washington Ave farside Lien Rd,43.12125,-89.318323,MMT,CMAD,0,,1,270,1,E Washington,3898,Lien,"6, 20",,0,0,0,0,0,111
-89.301302075754151,43.133387509661873,4239,9993,9993,E Washington N & 4810 (EB),This stop (#9993) is eastbound on the 4810 block of E Washington Frontage opposite 4810 Frontage Driveway,43.133385,-89.301303,MMT,CMAD,0,,4,90,1,E Washington N,4810,4810,6,,0,0,0,0,0,111
-89.30900109301507,43.124888490869246,4240,9996,9996,Eagan & East Towne (SB),This stop (#9996) is southbound on the 1748 block of Eagan Rd farside East Towne Blvd,43.124886,-89.309002,MMT,CMAD,0,,1,180,1,Eagan,1748,East Towne,"20, 30",,0,0,0,0,0,111
-89.423214320628958,43.031846303419336,3121,4818,4818,Todd & Greenway (SB),This stop (#4818) is southbound on the 2936 block of Todd Dr nearside Greenway Vw,43.031844,-89.423215,MMT,CMAD,0,,3,180,1,Todd,2936,Greenway,40,,0,0,0,0,0,110
-89.427543398907673,43.004953291390969,3122,4821,4821,S Fish Hatchery & Cheryl (NB),This stop (#4821) is northbound on the 2760 block of Fish Hatchery Rd (S) nearside Cheryl Dr,43.004951,-89.427544,MMT,CFIT,0,,3,0,0,S Fish Hatchery,2760,Cheryl,49,,0,0,0,0,0,100
-89.477954377826109,43.015317250747358,3123,4822,4822,Hardrock & Mckee (SB),This stop (#4822) is southbound on the 2999 block of Hardrock Rd farside Mckee Rd,43.015315,-89.477955,MMT,CFIT,0,,1,180,0,Hardrock,2999,Mckee,"52, 59",,0,0,0,0,0,111
-89.428542391196331,43.007934291252894,3124,4824,4824,Mickelson & S Fish Hatchery (WB),This stop (#4824) is westbound on the 2801 block of Mickelson Pkwy farside Fish Hatchery Rd (S),43.007932,-89.428543,MMT,CFIT,0,,1,270,0,Mickelson,2801,S Fish Hatchery,"49, 59",,0,0,0,0,0,101
-89.44373231051982,43.035810284686036,3125,4830,4830,Seminole & Doncaster (SB),This stop (#4830) is southbound on the 1600 block of Seminole Hwy farside Doncaster Dr,43.035808,-89.443733,MMT,CMAD,0,,1,180,0,Seminole,1600,Doncaster,19,,0,0,0,0,0,110
-89.430492338873307,43.025919294544309,3126,4834,4834,Post & Knollwood (SB),This stop (#4834) is southbound on the 3099 block of Post Rd farside Knollwood Way,43.025917,-89.430493,MMT,CMAD,0,,1,180,0,Post,3099,Knollwood,"40, 47",,0,0,0,0,0,111
-89.47409636543162,43.019034254120449,3127,4836,4836,Fitchrona & King James (WB),This stop (#4836) is westbound on the 3099 block of Fitchrona Rd farside King James Way,43.019032,-89.474097,MMT,CFIT,0,,1,270,1,Fitchrona,3099,King James,"52, 59",,0,0,0,0,0,111
-89.423226336343959,43.026358301841036,3128,4837,4837,Post & Leopold (EB),This stop (#4837) is eastbound on the 2599 block of Post Rd farside Leopold Way,43.026356,-89.423227,MMT,CFIT,0,,1,90,1,Post,2599,Leopold,"40, 47",,0,0,1,0,0,111
-89.519405466916282,42.994095225119921,3129,4838,4838,E Verona & Hometown (WB),This stop (#4838) is westbound on the 698 block of Verona Ave (E) farside Hometown Cir,42.994093,-89.519406,MMT,CVER,0,,1,270,1,E Verona,698,Hometown,75,,0,0,0,0,0,100
-89.423053311366886,43.034862304480235,3130,4841,4841,Beltline S & Todd (EB),This stop (#4841) is eastbound on the 2701 block of Beltline Frontage (S) nearside Todd Dr,43.03486,-89.423054,MMT,CMAD,0,,3,90,1,Beltline S,2701,Todd,18,,0,0,1,0,0,011
-89.455752373584801,43.015584269896777,3131,4842,4842,Mckee & Seminole (WB),This stop (#4842) is westbound on the 6000 block of Mckee Rd farside Seminole Hwy,43.015582,-89.455753,MMT,CFIT,0,,1,270,0,Mckee,6000,Seminole,59,,0,0,0,0,0,001
-89.404929304768444,43.036795322370558,3132,4845,4845,Fish Hatchery & Emil (NB),This stop (#4845) is northbound on the 2599 block of Fish Hatchery Rd farside Emil St,43.036793,-89.40493,MMT,CMAD,0,,1,0,1,Fish Hatchery,2599,Emil,"18, 40, 47",,0,0,0,0,0,111
-89.459531346623777,43.024652268217991,3133,4847,4847,Crescent & Allied (EB),This stop (#4847) is eastbound on the 4899 block of Crescent Rd farside Allied Dr,43.02465,-89.459532,MMT,CMAD,0,,1,90,0,Crescent,4899,Allied,"18, 19",,0,0,0,0,0,111
-89.444216286866492,43.04375928642893,3134,4848,4848,Nakoma & Seminole (SB),This stop (#4848) is southbound on the 4100 block of Nakoma Rd farside Seminole Hwy,43.043757,-89.444217,MMT,CMAD,0,,1,180,1,Nakoma,4100,Seminole,19,,0,0,0,0,0,110
-89.45920033167036,43.02923526963999,3135,4849,4849,Allied & Jenewein (NB),This stop (#4849) is northbound on the 2299 block of Allied Dr farside Jenewein Rd,43.029233,-89.459201,MMT,CMAD,0,,1,0,1,Allied,2299,Jenewein,18,,0,0,1,0,0,111
-89.450753303881442,43.038261278227779,3136,4851,4851,Mohawk & Nakoma (EB),This stop (#4851) is eastbound on the 4323 block of Mohawk Dr farside Nakoma Rd,43.038259,-89.450754,MMT,CMAD,0,,1,90,1,Mohawk,4323,Nakoma,19,,0,0,0,0,0,110
-89.455535342909357,43.025656271468357,3137,4856,4856,Crescent & Red Arrow (WB),This stop (#4856) is westbound on the 4600 block of Crescent Rd farside Red Arrow Trl,43.025654,-89.455536,MMT,CFIT,0,,1,270,1,Crescent,4600,Red Arrow,18,,0,0,0,0,0,111
-89.456537324004259,43.031591271532974,3138,4861,4861,Red Arrow & Thurston (NB),This stop (#4861) is northbound on the 2099 block of Red Arrow Trl farside Thurston Ln,43.031589,-89.456538,MMT,CFIT,0,,1,0,1,Red Arrow,2099,Thurston,"18, 19",,1,0,1,0,0,111
-89.428369390130996,43.008140291430138,3139,4862,4862,S Fish Hatchery & Mickelson (SB),This stop (#4862) is southbound on the 2800 block of Fish Hatchery Rd (S) nearside Mickelson Pkwy,43.008138,-89.42837,MMT,CFIT,0,,3,180,0,S Fish Hatchery,2800,Mickelson,59,,0,0,0,0,0,001
-89.450892280185087,43.046050280012821,3140,4865,4865,S Midvale & Yuma (NB),This stop (#4865) is northbound on the 901 block of Midvale Blvd (S) farside Yuma Dr,43.046048,-89.450893,MMT,CMAD,0,,1,0,0,S Midvale,901,Yuma,18,,0,0,0,0,0,111
-89.435243312217878,43.034916292998425,3141,4873,4873,Beltline S & River Bend (EB),This stop (#4873) is eastbound on the 3601 block of Beltline Frontage (S) nearside River Bend Rd,43.034914,-89.435244,MMT,TMAD,0,,3,90,0,Beltline S,3601,River Bend,18,,0,0,0,0,0,011
-89.425126311047734,43.035158303,3142,4876,4876,Beltline S & Sergenians (WB),This stop (#4876) is westbound on the 2800 block of Beltline Frontage (S) opposite Sergenians,43.035156,-89.425127,MMT,CMAD,0,,4,270,1,Beltline S,2800,Sergenians,"18, 40, 47",,1,0,1,0,0,111
-89.448397297343433,43.040214281066511,3143,4879,4879,Nakoma & Whenona (EB),This stop (#4879) is eastbound on the 4299 block of Nakoma Rd farside Whenona Dr,43.040212,-89.448398,MMT,CMAD,0,,1,90,0,Nakoma,4299,Whenona,19,,0,0,0,0,0,110
-89.410692319861056,43.031451314856504,3144,4882,4882,Greenway & Fish Hatchery (WB),This stop (#4882) is westbound on the 1798 block of Greenway Cross farside Fish Hatchery Rd,43.031449,-89.410693,MMT,TMAD,0,,1,270,0,Greenway,1798,Fish Hatchery,"18, 47",,0,0,0,0,0,101
-89.425162398758374,43.004909293726101,3145,4887,4887,Research Park & E Cheryl (NB),This stop (#4887) is northbound on the 2750 block of Research Park Dr nearside E Cheryl Pkwy,43.004907,-89.425163,MMT,CFIT,0,,3,0,0,Research Park,2750,E Cheryl,"49, 59",,0,0,0,0,0,101
-89.51905946778983,42.993738224110665,3146,4889,4889,E Verona & Hometown (EB),This stop (#4889) is eastbound on the 699 block of Verona Ave (E) nearside Hometown Cir,42.993736,-89.51906,MMT,CVER,0,,3,90,1,E Verona,699,Hometown,75,,0,0,0,0,0,100
-89.419785356489754,43.019062302734909,3147,4894,4894,S Fish Hatchery & Caddis (SB),This stop (#4894) is southbound on the 3039 block of Fish Hatchery Rd (S) farside Caddis Bend,43.01906,-89.419786,MMT,CFIT,0,,1,180,0,S Fish Hatchery,3039,Caddis,"49, 75",,0,0,0,0,0,100
-89.427037373884843,43.013879294070769,3148,4900,4900,S Fish Hatchery & Brendan (SB),This stop (#4900) is southbound on the 2950 block of Fish Hatchery Rd (S) nearside Brendan Ave,43.013877,-89.427038,MMT,CFIT,0,,3,180,0,S Fish Hatchery,2950,Brendan,59,,0,0,0,0,0,001
-89.540666501327792,42.989038218600477,3149,4905,4905,W Verona & Legion (EB),This stop (#4905) is eastbound on the 507 block of Verona Ave (W) farside Legion St,42.989036,-89.540667,MMT,CVER,0,,1,90,1,W Verona,507,Legion,75,,0,0,0,0,0,100
-89.453997314522908,43.034966275074254,3150,4909,4909,Britta & Verona E (EB),This stop (#4909) is eastbound on the 4499 block of Britta Pkwy farside Verona Frontage (E),43.034964,-89.453998,MMT,CMAD,0,,1,90,1,Britta,4499,Verona E,19,,0,0,0,0,0,110
-89.431504335369354,43.026984294497097,3151,4914,4914,Grandview & Sandwood (SB),This stop (#4914) is southbound on the 3298 block of Grandview Blvd nearside Sandwood Way,43.026982,-89.431505,MMT,CMAD,0,,3,180,1,Grandview,3298,Sandwood,"40, 47",,0,0,0,0,0,111
-89.448964305257931,43.037859280183326,3152,4916,4916,Mohawk & Whenona (WB),This stop (#4916) is westbound on the 4300 block of Mohawk Dr farside Whenona Dr,43.037857,-89.448965,MMT,CMAD,0,,1,270,0,Mohawk,4300,Whenona,19,,0,0,0,0,0,110
-89.546164508116419,42.988505217670856,3153,4918,4918,W Verona & Half Mile (WB),This stop (#4918) is westbound on the 600 block of Verona Ave (W) farside Half Mile Rd,42.988503,-89.546165,MMT,CVER,0,,1,270,0,W Verona,600,Half Mile,75,,0,0,0,0,0,100
-89.448779305582548,43.037644280538984,3154,4927,4927,Mohawk & Whenona (EB),This stop (#4927) is eastbound on the 4301 block of Mohawk Dr nearside Whenona Dr,43.037642,-89.44878,MMT,CMAD,0,,3,90,0,Mohawk,4301,Whenona,19,,0,0,0,0,0,110
-89.443436310564138,43.035944284884231,3155,4929,4929,Seminole & Doncaster (NB),This stop (#4929) is northbound on the 1501 block of Seminole Hwy nearside Doncaster Dr,43.035942,-89.443437,MMT,CMAD,0,,3,0,1,Seminole,1501,Doncaster,19,,0,0,0,0,0,110
-89.446859372750524,43.015380277709745,3156,4935,4935,Mckee & Osmundsen (EB),This stop (#4935) is eastbound on the 5799 block of Mckee Rd farside Osmundsen Rd,43.015378,-89.44686,MMT,CFIT,0,,1,90,0,Mckee,5799,Osmundsen,59,,0,0,0,0,0,001
-89.427999398724324,43.005231290957923,3157,4936,4936,S Fish Hatchery & Cheryl (SB),This stop (#4936) is southbound on the 2761 block of Fish Hatchery Rd (S) nearside Cheryl Dr,43.005229,-89.428,MMT,CFIT,0,,3,180,0,S Fish Hatchery,2761,Cheryl,"49, 59",,0,0,0,0,0,101
-89.417157350306113,43.021318305266647,3158,4941,4941,Fish Hatchery & High Ridge (NB),This stop (#4941) is northbound on the 3299 block of Fish Hatchery Rd farside High Ridge Trl,43.021316,-89.417158,MMT,CFIT,0,,1,0,1,Fish Hatchery,3299,High Ridge,"40, 47, 49",,1,0,1,0,0,111
-89.426125335790431,43.026743299611709,3159,4945,4945,Post & Todd (EB),This stop (#4945) is eastbound on the 2801 block of Post Rd nearside Todd Dr,43.026741,-89.426126,MMT,CMAD,0,,3,90,1,Post,2801,Todd,"40, 47",,0,0,1,0,0,111
-89.414578333562005,43.026769310193416,3160,4953,4953,Post & Coho (EB),This stop (#4953) is eastbound on the 1999 block of Post Rd farside Coho St,43.026767,-89.414579,MMT,CFIT,0,,1,90,1,Post,1999,Coho,"40, 47",,1,0,1,0,0,111
-89.448408314405157,43.034654280579637,3161,4957,4957,Whenona & Beltline S (NB),This stop (#4957) is northbound on the 1801 block of Whenona Dr nearside Beltline Frontage (S),43.034652,-89.448409,MMT,CMAD,0,,3,0,1,Whenona,1801,Beltline S,19,,0,0,1,0,0,110
-89.431515368694619,43.015543290804764,3162,4963,4963,Mckee & Chapel Valley (EB),This stop (#4963) is eastbound on the 6099 block of Mckee Rd farside Chapel Valley Rd,43.015541,-89.431516,MMT,CFIT,0,,1,90,0,Mckee,6099,Chapel Valley,"59, 75",,0,0,0,0,0,101
-89.449113298572115,43.039972280335064,3163,4964,4964,Nakoma & Whenona (WB),This stop (#4964) is westbound on the 4300 block of Nakoma Rd farside Whenona Dr,43.03997,-89.449114,MMT,CMAD,0,,1,270,0,Nakoma,4300,Whenona,19,,0,0,0,0,0,110
-89.463838336872911,43.027703264427544,3164,4967,4967,Chalet Gardens & Verona E (EB),This stop (#4967) is eastbound on the 2300 block of Chalet Gardens Rd farside Verona Frontage (E),43.027701,-89.463839,MMT,CFIT,0,,1,90,0,Chalet Gardens,2300,Verona E,19,,0,0,0,0,0,110
-89.428618312135939,43.034961298924976,3165,4968,4968,Beltline S & Landmark (WB),This stop (#4968) is westbound on the 3100 block of Beltline Frontage (S) nearside Landmark Pl,43.034959,-89.428619,MMT,CMAD,0,,3,270,1,Beltline S,3100,Landmark,"18, 40, 47",,0,0,0,0,0,111
-89.389001379657955,43.008968325013207,3166,4970,4970,Lacy & Central Park (WB),This stop (#4970) is westbound on the 5000 block of Lacy Rd farside Central Park Pl,43.008966,-89.389002,MMT,CFIT,0,,1,270,1,Lacy,5000,Central Park,49,,0,0,0,0,0,100
-89.4165423972414,43.004891300436682,3167,4971,4971,E Cheryl & Agrace (EB),This stop (#4971) is eastbound on the 5395 block of E Cheryl Pkwy adjacent Agrace Campus,43.004889,-89.416543,MMT,CFIT,0,,2,90,0,E Cheryl,5395,Agrace,49,,0,0,0,0,0,100
-89.475358348283081,43.024557254090432,3168,4972,4972,Williamsburg & S Whitney (WB),This stop (#4972) is westbound on the 5600 block of Williamsburg Way farside Whitney Way (S),43.024555,-89.475359,MMT,CFIT,0,,1,270,0,Williamsburg,5600,S Whitney,"52, 59",,0,0,0,0,0,111
-89.459374324594179,43.031456268991924,3169,4980,4980,Carling & Allied (WB),This stop (#4980) is westbound on the 2100 block of Carling Dr farside Allied Dr,43.031454,-89.459375,MMT,CMAD,0,,1,270,1,Carling,2100,Allied,19,,0,0,0,0,0,110
-89.422844365937095,43.016135299181791,3170,4981,4981,S Fish Hatchery & Cahill (NB),This stop (#4981) is northbound on the 2970 block of Fish Hatchery Rd (S) nearside Cahill Main,43.016133,-89.422845,MMT,CFIT,0,,3,0,0,S Fish Hatchery,2970,Cahill,49,,0,0,0,0,0,100
-89.476254366430211,43.018926252082579,3171,4984,4984,Fitchrona & Kapec (WB),This stop (#4984) is westbound on the 3021 block of Fitchrona Rd farside Kapec Rd,43.018924,-89.476255,MMT,CFIT,0,,1,270,1,Fitchrona,3021,Kapec,"52, 59",,0,0,0,0,0,111
-89.44893732118085,43.032317279497022,3172,4986,4986,Crawford & Whenona (WB),This stop (#4986) is westbound on the 4300 block of Crawford Dr farside Whenona Dr,43.032315,-89.448938,MMT,CMAD,0,,1,270,1,Crawford,4300,Whenona,19,,0,0,0,0,0,110
-89.459371345085202,43.024885267871596,3173,4990,4990,Crescent & Allied (WB),This stop (#4990) is westbound on the 4898 block of Crescent Rd nearside Allied Dr,43.024883,-89.459372,MMT,CMAD,0,,3,270,0,Crescent,4898,Allied,18,,0,0,0,0,0,111
-89.473899364543072,43.01943725434365,3174,4993,4993,King James & Anton (NB),This stop (#4993) is northbound on the 2999 block of King James Way farside Anton Dr,43.019435,-89.4739,MMT,CFIT,0,,1,0,1,King James,2999,Anton,"52, 59",,0,0,1,0,0,111
-89.428407372883569,43.014031292957227,3175,4999,4999,Brendan & Mickelson (EB),This stop (#4999) is eastbound on the 5301 block of Brendan Ave nearside Mickelson Pkwy,43.014029,-89.428408,MMT,CFIT,0,,3,90,0,Brendan,5301,Mickelson,49,,0,0,0,0,0,100
-89.37818301392042,43.145022405859805,3176,5105,5105,Northland & Mandrake (EB),This stop (#5105) is eastbound on the 1099 block of Northland Dr nearside Mandrake Rd,43.14502,-89.378184,MMT,CMAD,0,,3,90,1,Northland,1099,Mandrake,21,,0,0,0,0,0,111
-89.374739988711454,43.155139417138287,3177,5107,5107,Burning Wood & Arapahoe (EB),This stop (#5107) is eastbound on the 1209 block of Burning Wood Way nearside Arapahoe Ln,43.155137,-89.374741,MMT,CMAD,0,,3,90,0,Burning Wood,1209,Arapahoe,29,,0,0,0,0,0,100
-89.35874706448422,43.128772424903929,3178,5109,5109,Northport & Dryden (EB),This stop (#5109) is eastbound on the 1901 block of Northport Dr farside Dryden Dr,43.12877,-89.358748,MMT,CMAD,0,,1,90,1,Northport,1901,Dryden,21,,0,0,1,0,0,111
-89.363626094845742,43.116257410174271,3179,5125,5125,N Sherman & Logan (NB),This stop (#5125) is northbound on the 1499 block of Sherman Ave (N) nearside Logan St,43.116255,-89.363627,MMT,CMAD,0,,3,0,1,N Sherman,1499,Logan,22,,0,0,0,0,0,111
-89.378214991878437,43.152964410507941,3180,5126,5126,Menomonie & Chinook (WB),This stop (#5126) is westbound on the 1000 block of Menomonie Ln nearside Chinook Ln,43.152962,-89.378216,MMT,CMAD,0,,3,270,0,Menomonie,1000,Chinook,29,,0,0,0,0,0,100
-89.382807022809345,43.140896397306676,3181,5127,5127,School & Havey (NB),This stop (#5127) is northbound on the 4299 block of School Rd nearside Havey Rd,43.140894,-89.382808,MMT,CMAD,0,,3,0,1,School,4299,Havey,"21, 29",,0,0,0,0,0,111
-89.361118060745838,43.130018422146357,3182,5138,5138,Northport & Northside Town (WB),This stop (#5138) is westbound on the 1800 block of Northport Dr opposite Northside Town Center,43.130016,-89.361119,MMT,CMAD,0,,4,270,1,Northport,1800,Northside Town,21,,0,0,0,0,0,111
-89.373211045537758,43.133801407241982,3183,5142,5142,Troy & Forster (WB),This stop (#5142) is westbound on the 1400 block of Troy Dr nearside Forster Dr,43.133799,-89.373212,MMT,CMAD,0,,3,270,1,Troy,1400,Forster,22,,0,0,0,0,0,111
-89.35491208386965,43.121849426002989,3184,5143,5143,Packers & International (NB),This stop (#5143) is northbound on the 2201 block of Packers Ave farside International Ln,43.121847,-89.354913,MMT,CMAD,0,,1,0,1,Packers,2201,International,"21, 29",,0,0,0,0,0,111
-89.371234045968151,43.13384541036843,3185,5149,5149,Northport & Troy (EB),This stop (#5149) is eastbound on the 1499 block of Northport Dr nearside Troy Dr,43.133843,-89.371235,MMT,CMAD,0,,3,90,1,Northport,1499,Troy,22,,0,0,1,0,0,111
-89.363663058932573,43.130279418622649,3186,5162,5162,N Sherman & Northport (SB),This stop (#5162) is southbound on the 2900 block of Sherman Ave (N) farside Northport Dr,43.130277,-89.363664,MMT,CMAD,0,,1,180,1,N Sherman,2900,Northport,22,,1,0,1,0,0,111
-89.358710063021334,43.129130424814349,3187,5164,5164,Northport & Dryden (WB),This stop (#5164) is westbound on the 1900 block of Northport Dr nearside Dryden Dr,43.129128,-89.358711,MMT,CMAD,0,,3,270,1,Northport,1900,Dryden,21,,0,0,0,0,0,111
-89.382731014365476,43.143725398945094,3188,5173,5173,School & Fulton (NB),This stop (#5173) is northbound on the 4599 block of School Rd nearside Fulton Ln,43.143723,-89.382732,MMT,CMAD,0,,3,0,0,School,4599,Fulton,"21, 29",,0,0,0,0,0,111
-89.37773304310646,43.133857401136133,3189,5178,5178,Troy & Goodland (WB),This stop (#5178) is westbound on the 1198 block of Troy Dr farside Goodland Dr,43.133855,-89.377734,MMT,CMAD,0,,1,270,1,Troy,1198,Goodland,22,,0,0,0,0,0,111
-89.363599089311336,43.118764411969664,3190,5193,5193,N Sherman & Schlimgen (NB),This stop (#5193) is northbound on the 1799 block of Sherman Ave (N) nearside Schlimgen Ave,43.118762,-89.3636,MMT,CMAD,0,,3,0,1,N Sherman,1799,Schlimgen,22,,0,0,0,0,0,111
-89.39699503323007,43.134775373534957,3191,5197,5197,Troy & North (NB),This stop (#5197) is northbound on the 2 block of Troy Dr nearside North Rd,43.134773,-89.396996,MMT,CMAD,0,,3,0,1,Troy,2,North,22,,0,0,0,0,0,111
-89.397686025170344,43.13751537351704,3192,5203,5203,Green & Meadow Ridge (NB),This stop (#5203) is northbound on the 4101 block of Green Ave nearside Meadow Ridge Ln,43.137513,-89.397687,MMT,CMAD,0,,3,0,0,Green,4101,Meadow Ridge,22,,0,0,0,0,0,111
-89.372353985671225,43.156562421416517,3193,5214,5214,Manitowish & Comanche (SB),This stop (#5214) is southbound on the 5500 block of Manitowish Way nearside Comanche Way,43.15656,-89.372355,MMT,CMAD,0,,3,180,0,Manitowish,5500,Comanche,29,,0,0,0,0,0,100
-89.363169058269889,43.130377419011936,3194,5223,5223,Northport & N Sherman (EB),This stop (#5223) is eastbound on the 1701 block of Northport Dr farside Sherman Ave (N),43.130375,-89.36317,MMT,CMAD,0,,1,90,0,Northport,1701,N Sherman,29,,0,0,0,0,0,100
-89.355342079050686,43.123676426340175,3195,5228,5228,Packers & Manley (SB),This stop (#5228) is southbound on the 2398 block of Packers Ave farside Manley St,43.123674,-89.355343,MMT,CMAD,0,,1,180,1,Packers,2398,Manley,21,,0,0,0,0,0,111
-89.363265013708499,43.147487429778465,3196,5230,5230,Wheeler & N Sherman (WB),This stop (#5230) is westbound on the 1698 block of Wheeler Rd farside Sherman Ave (N),43.147485,-89.363266,MMT,CMAD,0,,1,270,0,Wheeler,1698,N Sherman,29,,0,0,0,0,0,100
-89.363511046832429,43.134934421703186,3197,5236,5236,N Sherman & Tennyson (SB),This stop (#5236) is southbound on the 3800 block of Sherman Ave (N) nearside Tennyson Ln,43.134932,-89.363512,MMT,CMAD,0,,3,180,0,N Sherman,3800,Tennyson,29,,0,0,0,0,0,100
-89.362910026314694,43.143046427423428,3198,5253,5253,N Sherman & Delaware (NB),This stop (#5253) is northbound on the 4613 block of Sherman Ave (N) farside Delaware Blvd,43.143044,-89.362911,MMT,CMAD,0,,1,0,0,N Sherman,4613,Delaware,29,,0,0,0,0,0,100
-89.362157061277301,43.129248420509576,3199,5256,5256,Northside Town & Park And Ride (WB),This stop (#5256) is westbound on the 2901 block of Northside Town Center Lot adjacent Park And Ride Lot,43.129246,-89.362158,MMT,PRIV,0,,2,270,1,Northside Town,2901,Park And Ride,29,,1,0,1,0,0,100
-89.380575041958238,43.133858396850108,3200,5260,5260,Troy & Crosswalk (WB),This stop (#5260) is westbound on the 1000 block of Troy Dr adjacent Crosswalk,43.133856,-89.380576,MMT,CMAD,0,,2,270,1,Troy,1000,Crosswalk,22,,0,0,0,0,0,111
-89.363405026735151,43.142464426254023,3201,5287,5287,Delaware & N Sherman (EB),This stop (#5287) is eastbound on the 1699 block of Delaware Blvd nearside Sherman Ave (N),43.142462,-89.363406,MMT,CMAD,0,,3,90,1,Delaware,1699,N Sherman,21,,0,0,1,0,0,111
-89.372038006351019,43.148924417096119,3202,5295,5295,Comanche & Wheeler (NB),This stop (#5295) is northbound on the 5095 block of Comanche Way farside Wheeler Rd,43.148922,-89.372039,MMT,CMAD,0,,1,0,0,Comanche,5095,Wheeler,29,,0,0,0,0,0,100
-89.37509100665217,43.14821841278318,3203,5299,5299,Wheeler & Delaware (EB),This stop (#5299) is eastbound on the 1201 block of Wheeler Rd farside Delaware Blvd,43.148216,-89.375092,MMT,CMAD,0,,1,90,0,Wheeler,1201,Delaware,29,,0,0,0,0,0,100
-89.363909091363382,43.117448411045316,3204,5304,5304,N Sherman & Farragut (SB),This stop (#5304) is southbound on the 1698 block of Sherman Ave (N) farside Farragut St,43.117446,-89.36391,MMT,CMAD,0,,1,180,1,N Sherman,1698,Farragut,22,,0,0,0,0,0,111
-89.358326061331354,43.129945426125808,3205,5306,5306,Londonderry & Dryden (WB),This stop (#5306) is westbound on the 1900 block of Londonderry Dr nearside Dryden Dr,43.129943,-89.358327,MMT,CMAD,0,,3,270,1,Londonderry,1900,Dryden,21,,0,0,0,0,0,111
-89.355488073543569,43.125834427680871,3206,5320,5320,Packers & Elka (SB),This stop (#5320) is southbound on the 2600 block of Packers Ave nearside Elka Ln,43.125832,-89.355489,MMT,CMAD,0,,3,180,1,Packers,2600,Elka,"21, 29",,0,0,0,0,0,111
-89.363177047575789,43.134773422345376,3207,5335,5335,Tennyson & N Sherman (EB),This stop (#5335) is eastbound on the 1701 block of Tennyson Ln farside Sherman Ave (N),43.134771,-89.363178,MMT,CMAD,0,,1,90,1,Tennyson,1701,N Sherman,21,,0,0,0,0,0,111
-89.38629504017679,43.133877388360908,3208,5342,5342,Troy & Karstens (WB),This stop (#5342) is westbound on the 716 block of Troy Dr farside Karstens Dr (E),43.133875,-89.386296,MMT,CMAD,0,,1,270,1,Troy,716,Karstens,22,,0,0,0,0,0,111
-89.367293050653387,43.13256341546343,3209,5346,5346,Northport & Warner Park (WB),This stop (#5346) is westbound on the 1650 block of Northport Dr opposite Warner Park Lot,43.132561,-89.367294,MMT,CMAD,0,,4,270,1,Northport,1650,Warner Park,"21, 22",,0,0,1,0,0,111
-89.36712101160559,43.147543423565629,3210,5347,5347,Wheeler & Golf View (EB),This stop (#5347) is eastbound on the 1601 block of Wheeler Rd farside Golf View Rd,43.147541,-89.367122,MMT,CMAD,0,,1,90,0,Wheeler,1601,Golf View,29,,0,0,0,0,0,100
-89.371631008456532,43.148189417231464,3211,5349,5349,Wheeler & Comanche (EB),This stop (#5349) is eastbound on the 1301 block of Wheeler Rd farside Comanche Way,43.148187,-89.371632,MMT,CMAD,0,,1,90,0,Wheeler,1301,Comanche,29,,0,0,0,0,0,100
-89.355706061783536,43.130230429937043,3212,5356,5356,Londonderry & Packers (WB),This stop (#5356) is westbound on the 2098 block of Londonderry Dr farside Packers Ave,43.130228,-89.355707,MMT,CMAD,0,,1,270,1,Londonderry,2098,Packers,21,,0,0,0,0,0,111
-89.363793077741363,43.122892414247694,3213,5358,5358,N Sherman & Melrose (SB),This stop (#5358) is southbound on the 2298 block of Sherman Ave (N) farside Melrose St,43.12289,-89.363794,MMT,CMAD,0,,1,180,1,N Sherman,2298,Melrose,22,,0,0,0,0,0,111
-89.363773056818786,43.131004418683041,3214,5366,5366,Northport & N Sherman (WB),This stop (#5366) is westbound on the 1698 block of Northport Dr farside Sherman Ave (N),43.131002,-89.363774,MMT,CMAD,0,,1,270,1,Northport,1698,N Sherman,"21, 22",,0,0,1,0,0,111
-89.382940008561377,43.145821399409201,3215,5370,5370,School & Northland (SB),This stop (#5370) is southbound on the 4798 block of School Rd farside Northland Dr,43.145819,-89.382941,MMT,CMAD,0,,1,180,0,School,4798,Northland,29,,0,0,0,0,0,100
-89.36372806863416,43.126258416308687,3216,5382,5382,N Sherman & Trailsway (SB),This stop (#5382) is southbound on the 2600 block of Sherman Ave (N) nearside Trailsway,43.126256,-89.363729,MMT,CMAD,0,,3,180,1,N Sherman,2600,Trailsway,22,,1,0,1,0,0,111
-89.363012032378307,43.140494425927507,3217,5385,5385,N Sherman & Mayfield (NB),This stop (#5385) is northbound on the 4299 block of Sherman Ave (N) farside Mayfield Ln,43.140492,-89.363013,MMT,CMAD,0,,1,0,0,N Sherman,4299,Mayfield,29,,0,0,0,0,0,100
-89.392568015108239,43.141740382801359,3218,5397,5397,Knutson & Northport (EB),This stop (#5397) is eastbound on the 399 block of Knutson Dr nearside Northport Dr,43.141738,-89.392569,MMT,CMAD,0,,3,90,1,Knutson,399,Northport,22,,0,0,0,0,0,111
-89.363496076775078,43.123438414480155,3219,5407,5407,N Sherman & Melrose (NB),This stop (#5407) is northbound on the 2301 block of Sherman Ave (N) farside Melrose St,43.123436,-89.363497,MMT,CMAD,0,,1,0,1,N Sherman,2301,Melrose,22,,0,0,0,0,0,111
-89.368113023259497,43.143308419877407,3220,5411,5411,Delaware & Dakota (EB),This stop (#5411) is eastbound on the 1599 block of Delaware Blvd nearside Dakota Dr,43.143306,-89.368114,MMT,CMAD,0,,3,90,1,Delaware,1599,Dakota,21,,0,0,0,0,0,111
-89.371184045281083,43.134212410889283,3221,5414,5414,Northport & Troy (WB),This stop (#5414) is westbound on the 1434 block of Northport Dr farside Troy Dr,43.13421,-89.371185,MMT,CMAD,0,,1,270,1,Northport,1434,Troy,21,,0,0,1,0,0,111
-89.355286092236952,43.118420422749367,3222,5420,5420,Packers & Schlimgen (SB),This stop (#5420) is southbound on the 1798 block of Packers Ave farside Schlimgen Ave,43.118418,-89.355287,MMT,CMAD,0,,1,180,1,Packers,1798,Schlimgen,"20, 21",,0,0,0,0,0,111
-89.383315030255119,43.137950394727277,3223,5421,5421,Northport & School (EB),This stop (#5421) is eastbound on the 899 block of Northport Dr nearside School Rd,43.137948,-89.383316,MMT,CMAD,0,,3,90,1,Northport,899,School,22,,0,0,1,0,0,111
-89.355579050944655,43.134581432856308,3224,5427,5427,Tennyson & Packers (EB),This stop (#5427) is eastbound on the 2099 block of Tennyson Ln nearside Packers Ave,43.134579,-89.35558,MMT,CMAD,0,,3,90,1,Tennyson,2099,Packers,21,,0,0,0,0,0,111
-89.363410040668128,43.137343423050858,3225,5432,5432,N Sherman & Lake View (SB),This stop (#5432) is southbound on the 4100 block of Sherman Ave (N) nearside Lake View Ave,43.137341,-89.363411,MMT,CMAD,0,,3,180,1,N Sherman,4100,Lake View,"21, 29",,0,0,0,0,0,111
-89.354860078318566,43.12389042687019,3226,5433,5433,Packers & Manley (NB),This stop (#5433) is northbound on the 2399 block of Packers Ave nearside Manley St,43.123888,-89.354861,MMT,CMAD,0,,3,0,1,Packers,2399,Manley,21,,0,0,0,0,0,111
-89.363055015941512,43.14705842939118,3227,5444,5444,N Sherman & Wheeler (SB),This stop (#5444) is southbound on the 4998 block of Sherman Ave (N) farside Wheeler Rd,43.147056,-89.363056,MMT,CMAD,0,,1,180,0,N Sherman,4998,Wheeler,29,,0,0,0,0,0,100
-89.363315052743445,43.132705420398288,3228,5461,5461,N Sherman & Thackeray (NB),This stop (#5461) is northbound on the 3501 block of Sherman Ave (N) farside Thackeray Rd,43.132703,-89.363316,MMT,CMAD,0,,1,0,0,N Sherman,3501,Thackeray,29,,0,0,0,0,0,100
-89.373773980934658,43.158120419400113,3229,5473,5473,Manitowish & Burning Wood (EB),This stop (#5473) is eastbound on the 5598 block of Manitowish Way farside Burning Wood Way,43.158118,-89.373775,MMT,CMAD,0,,1,90,0,Manitowish,5598,Burning Wood,29,,0,0,0,0,0,100
-89.380387033286212,43.137394398669812,3230,5482,5482,Northport & Barby (WB),This stop (#5482) is westbound on the 1000 block of Northport Dr nearside Barby Ln,43.137392,-89.380388,MMT,CMAD,0,,3,270,1,Northport,1000,Barby,21,,0,0,0,0,0,111
-89.367615011126432,43.147928423254875,3231,5484,5484,Wheeler & Golf View (WB),This stop (#5484) is westbound on the 1598 block of Wheeler Rd farside Golf View Rd,43.147926,-89.367616,MMT,CMAD,0,,1,270,0,Wheeler,1598,Golf View,29,,0,0,0,0,0,100
-89.376582037856181,43.13613040394069,3232,5520,5520,Northport & Goodland (WB),This stop (#5520) is westbound on the 1200 block of Northport Dr nearside Goodland Dr,43.136128,-89.376583,MMT,CMAD,0,,3,270,1,Northport,1200,Goodland,21,,0,0,0,0,0,111
-89.389298039287041,43.133887384391045,3233,5536,5536,Troy & Lerdahl (WB),This stop (#5536) is westbound on the 600 block of Troy Dr nearside Lerdahl Rd,43.133885,-89.389299,MMT,CMAD,0,,3,270,1,Troy,600,Lerdahl,22,,0,1,1,0,0,111
-89.37244600565829,43.149112416763479,3234,5540,5540,Comanche & Wheeler (SB),This stop (#5540) is southbound on the 5100 block of Comanche Way nearside Wheeler Rd,43.14911,-89.372447,MMT,CMAD,0,,3,180,0,Comanche,5100,Wheeler,29,,0,0,0,0,0,100
-89.35550605532373,43.132988432519682,3235,5549,5549,Packers & Scott (SB),This stop (#5549) is southbound on the 3600 block of Packers Ave nearside Scott Ln,43.132986,-89.355507,MMT,CMAD,0,,3,180,1,Packers,3600,Scott,21,,1,0,1,0,0,111
-89.375254014335781,43.145317410118579,3236,5607,5607,Northland & Delaware (EB),This stop (#5607) is eastbound on the 1199 block of Northland Dr nearside Delaware Blvd,43.145315,-89.375255,MMT,CMAD,0,,3,90,1,Northland,1199,Delaware,21,,0,0,0,0,0,111
-89.372384007983555,43.14841441697282,3237,5610,5610,Wheeler & Comanche (WB),This stop (#5610) is westbound on the 1298 block of Wheeler Rd farside Comanche Way,43.148412,-89.372385,MMT,CMAD,0,,1,270,0,Wheeler,1298,Comanche,29,,0,0,0,0,0,100
-89.383028015380475,43.143591398126802,3238,5620,5620,School & Fulton (SB),This stop (#5620) is southbound on the 4598 block of School Rd farside Fulton Ln,43.143589,-89.383029,MMT,CMAD,0,,1,180,1,School,4598,Fulton,29,,0,0,0,0,0,100
-89.382643009219152,43.145955399944498,3239,5625,5625,School & Northland (NB),This stop (#5625) is northbound on the 4799 block of School Rd nearside Northland Dr,43.145953,-89.382644,MMT,CMAD,0,,3,0,1,School,4799,Northland,"21, 29",,0,1,0,0,0,111
-89.373876995009596,43.152685416984284,3240,5628,5628,Menomonie & Comanche (WB),This stop (#5628) is westbound on the 1398 block of Menomonie Ln farside Comanche Way,43.152683,-89.373878,MMT,CMAD,0,,1,270,1,Menomonie,1398,Comanche,29,,0,0,0,0,0,100
-89.396672021175419,43.138948376361071,3241,5657,5657,Murphy & Green (EB),This stop (#5657) is eastbound on the 201 block of Murphy Dr farside Green Blvd,43.138946,-89.396673,MMT,PRIV,0,,1,90,1,Murphy,201,Green,22,,1,0,1,0,0,111
-89.380832033146163,43.137126398601509,3242,5663,5663,Northport & Barby (EB),This stop (#5663) is eastbound on the 1001 block of Northport Dr nearside Barby Ln,43.137124,-89.380833,MMT,CMAD,0,,3,90,1,Northport,1001,Barby,22,,0,0,0,0,0,111
-89.363444069873495,43.12606141678738,3243,5683,5683,N Sherman & Trailsway (NB),This stop (#5683) is northbound on the 2601 block of Sherman Ave (N) nearside Trailsway,43.126059,-89.363445,MMT,CMAD,0,,3,0,1,N Sherman,2601,Trailsway,22,,0,0,1,0,0,111
-89.375462005446707,43.148433411848202,3244,5702,5702,Wheeler & Delaware (WB),This stop (#5702) is westbound on the 1200 block of Wheeler Rd nearside Delaware Blvd,43.148431,-89.375463,MMT,CMAD,0,,3,270,0,Wheeler,1200,Delaware,29,,0,0,0,0,0,100
-89.388319022965831,43.13971638860648,3245,5715,5715,Northport & Kennedy (EB),This stop (#5715) is eastbound on the 599 block of Northport Dr nearside Kennedy Rd,43.139714,-89.38832,MMT,CMAD,0,,3,90,0,Northport,599,Kennedy,22,,0,0,0,0,0,111
-89.368702009665853,43.148152421394322,3246,5725,5725,Wheeler & Wheeler (EB),This stop (#5725) is eastbound on the 1501 block of Wheeler Rd nearside Wheeler Ct,43.14815,-89.368703,MMT,CMAD,0,,3,90,0,Wheeler,1501,Wheeler,29,,0,0,0,0,0,100
-89.354828092420234,43.118635423989858,3247,5733,5733,Packers & Schlimgen (NB),This stop (#5733) is northbound on the 1799 block of Packers Ave nearside Schlimgen Ave,43.118633,-89.354829,MMT,CMAD,0,,3,0,1,Packers,1799,Schlimgen,"20, 21",,0,0,0,0,0,111
-89.363353057182394,43.131048419757718,3248,5741,5741,N Sherman & Northport (NB),This stop (#5741) is northbound on the 3399 block of Sherman Ave (N) farside Northport Dr,43.131046,-89.363354,MMT,CMAD,0,,1,0,0,N Sherman,3399,Northport,29,,0,0,0,0,0,100
-89.363883087045011,43.11904241174679,3249,5748,5748,N Sherman & Schlimgen (SB),This stop (#5748) is southbound on the 1800 block of Sherman Ave (N) nearside Schlimgen Ave,43.11904,-89.363884,MMT,CMAD,0,,3,180,1,N Sherman,1800,Schlimgen,22,,0,0,1,0,0,111
-89.363214045940978,43.135149422665599,3250,5753,5753,N Sherman & Tennyson (NB),This stop (#5753) is northbound on the 3801 block of Sherman Ave (N) farside Tennyson Ln,43.135147,-89.363215,MMT,CMAD,0,,1,0,0,N Sherman,3801,Tennyson,29,,0,0,0,0,0,100
-89.382920028857754,43.138425395583745,3251,5765,5765,School & Northport (NB),This stop (#5765) is northbound on the 4101 block of School Rd farside Northport Dr,43.138423,-89.382921,MMT,CMAD,0,,1,0,1,School,4101,Northport,21,,0,0,1,0,0,111
-89.354920073468733,43.1256364284245,3252,5777,5777,Packers & Elka (NB),This stop (#5777) is northbound on the 2599 block of Packers Ave nearside Elka Ln,43.125634,-89.354921,MMT,CMAD,0,,3,0,1,Packers,2599,Elka,21,,0,0,0,0,0,111
-89.383589040842594,43.133868392550369,3253,5796,5796,Troy & School (WB),This stop (#5796) is westbound on the 898 block of Troy Dr farside School Rd,43.133866,-89.38359,MMT,CMAD,0,,1,270,1,Troy,898,School,22,,1,0,1,0,0,111
-89.380469010328895,43.145596403105515,3254,5797,5797,Northland & Judy (EB),This stop (#5797) is eastbound on the 999 block of Northland Dr nearside Judy Ln,43.145594,-89.38047,MMT,CMAD,0,,3,90,1,Northland,999,Judy,21,,0,0,0,0,0,111
-89.383091021923207,43.141174396888843,3255,5814,5814,School & Havey (SB),This stop (#5814) is southbound on the 4300 block of School Rd nearside Havey Rd,43.141172,-89.383092,MMT,CMAD,0,,3,180,0,School,4300,Havey,29,,0,0,0,0,0,100
-89.376620039260672,43.135745403622835,3256,5815,5815,Northport & Goodland (EB),This stop (#5815) is eastbound on the 1201 block of Northport Dr farside Goodland Dr,43.135743,-89.376621,MMT,CMAD,0,,1,90,1,Northport,1201,Goodland,22,,0,0,0,0,0,111
-89.363207026574884,43.142912426849982,3257,5816,5816,N Sherman & Delaware (SB),This stop (#5816) is southbound on the 4600 block of Sherman Ave (N) nearside Delaware Blvd,43.14291,-89.363208,MMT,CMAD,0,,3,180,0,N Sherman,4600,Delaware,29,,0,0,0,0,0,100
-89.363392061428357,43.129016418892022,3258,5823,5823,N Sherman & Northside Town (NB),This stop (#5823) is northbound on the 2901 block of Sherman Ave (N) adjacent Northside Town Center,43.129014,-89.363393,MMT,CMAD,0,,2,0,1,N Sherman,2901,Northside Town,22,,0,0,1,0,0,111
-89.395189017911861,43.140756379113128,3259,5835,5835,North & Toussaint (EB),This stop (#5835) is eastbound on the 301 block of North Rd nearside Toussaint Dr,43.140754,-89.39519,MMT,PRIV,0,,3,90,1,North,301,Toussaint,22,,0,0,0,0,0,111
-89.379453004406585,43.148246405733559,3260,5845,5845,Wheeler & Ilene (EB),This stop (#5845) is eastbound on the 999 block of Wheeler Rd nearside Ilene Ln,43.148244,-89.379454,MMT,CMAD,0,,3,90,0,Wheeler,999,Ilene,29,,0,0,0,0,0,100
-89.370287017969758,43.14456341727206,3261,5847,5847,Delaware & Esch (EB),This stop (#5847) is eastbound on the 1501 block of Delaware Blvd farside Esch Ln,43.144561,-89.370288,MMT,CMAD,0,,1,90,1,Delaware,1501,Esch,21,,0,0,0,0,0,111
-89.355270084682147,43.121294424820405,3262,5856,5856,Packers & International (SB),This stop (#5856) is southbound on the 2100 block of Packers Ave farside International Ln,43.121292,-89.355271,MMT,CMAD,0,,1,180,1,Packers,2100,International,"20, 21, 29",,0,0,1,0,0,111
-89.373734015847219,43.144940412078206,3263,5865,5865,Delaware & Tennessee (EB),This stop (#5865) is eastbound on the 1299 block of Delaware Blvd nearside Tennessee Trl,43.144938,-89.373735,MMT,CMAD,0,,3,90,0,Delaware,1299,Tennessee,21,,0,0,0,0,0,111
-89.368813008562313,43.148376422106793,3264,5874,5874,Wheeler & Wheeler (WB),This stop (#5874) is westbound on the 1498 block of Wheeler Rd farside Wheeler Ct,43.148374,-89.368814,MMT,CMAD,0,,1,270,0,Wheeler,1498,Wheeler,29,,0,0,0,0,0,100
-89.363612052237585,43.132490420105903,3265,5884,5884,N Sherman & Thackeray (SB),This stop (#5884) is southbound on the 3500 block of Sherman Ave (N) nearside Thackeray Rd,43.132488,-89.363613,MMT,CMAD,0,,3,180,0,N Sherman,3500,Thackeray,29,,0,0,0,0,0,100
-89.363334034919589,43.139196424863705,3266,5888,5888,N Sherman & Sunfield (SB),This stop (#5888) is southbound on the 4200 block of Sherman Ave (N) nearside Sunfield St,43.139194,-89.363335,MMT,CMAD,0,,3,180,0,N Sherman,4200,Sunfield,"21, 29",,0,0,0,0,0,111
-89.363126040860479,43.137146423876572,3267,5889,5889,N Sherman & Lake View (NB),This stop (#5889) is northbound on the 4099 block of Sherman Ave (N) nearside Lake View Ave,43.137144,-89.363127,MMT,CMAD,0,,3,0,0,N Sherman,4099,Lake View,29,,0,0,0,0,0,100
-89.367294051991067,43.13215141455602,3268,5899,5899,Northport & Warner Park (EB),This stop (#5899) is eastbound on the 1651 block of Northport Dr farside Warner Park Lot,43.132149,-89.367295,MMT,CMAD,0,,1,90,1,Northport,1651,Warner Park,22,,1,0,1,0,0,111
-89.393066037082107,43.133897379266486,3269,5950,5950,Troy & Harper (WB),This stop (#5950) is westbound on the 400 block of Troy Dr nearside Harper Rd,43.133895,-89.393067,MMT,CMAD,0,,3,270,1,Troy,400,Harper,22,,0,0,0,0,0,111
-89.379639004095793,43.148461405745628,3270,5982,5982,Wheeler & Ilene (WB),This stop (#5982) is westbound on the 1000 block of Wheeler Rd farside Ilene Ln,43.148459,-89.37964,MMT,CMAD,0,,1,270,0,Wheeler,1000,Ilene,29,,0,0,0,0,0,100
-89.360743048358302,43.134709425551009,3271,5993,5993,Tennyson & Eliot (EB),This stop (#5993) is eastbound on the 1899 block of Tennyson Ln nearside Eliot Ln,43.134707,-89.360744,MMT,CMAD,0,,3,90,0,Tennyson,1899,Eliot,21,,0,0,0,0,0,111
-89.517400275857938,43.05186523055189,3272,6105,6105,Watts & S High Point (EB),This stop (#6105) is eastbound on the 7799 block of Watts Rd farside High Point Rd (S),43.051863,-89.517401,MMT,CMAD,0,,1,90,1,Watts,7799,S High Point,"55, 63, 73",,0,0,1,0,0,111
-89.486156120822173,43.095968245247839,3273,6106,6106,Allen & Mendota (SB),This stop (#6106) is southbound on the 2198 block of Allen Blvd farside Mendota Ave,43.095966,-89.486157,MMT,CMID,0,,1,180,1,Allen,2198,Mendota,"70, 71, 72, 78",,0,0,0,0,0,111
-89.504114146480774,43.087855228677199,3274,6109,6109,Fortune & Sweeney (EB),This stop (#6109) is eastbound on the 7099 block of Fortune Dr farside Sweeney Dr,43.087853,-89.504115,MMT,CMID,0,,1,90,1,Fortune,7099,Sweeney,"70, 71, 78",,1,0,1,0,0,111
-89.475178070574984,43.112733260381731,3275,6110,6110,Valley Ridge & South Ridge (SB),This stop (#6110) is southbound on the 3400 block of Valley Ridge Rd farside South Ridge Way,43.112731,-89.475179,MMT,CMID,0,,1,180,1,Valley Ridge,3400,South Ridge,"70, 72, 78",,0,0,0,0,0,111
-89.519280118485057,43.099108227920958,3276,6111,6111,Deming & Park Bank (EB),This stop (#6111) is eastbound on the 2275 block of Deming Way adjacent Park Bank,43.099106,-89.519281,MMT,CMID,0,,2,90,0,Deming,2275,Park Bank,"70, 71, 72, 78",,0,0,0,0,0,101
-89.527916169594064,43.085716229023056,3277,6114,6114,Fourier & Deming (SB),This stop (#6114) is southbound on the 1298 block of Fourier Dr farside Deming Way,43.085714,-89.527917,MMT,CMAD,0,,1,180,1,Fourier,1298,Deming,73,,0,0,0,0,0,110
-89.497914186877168,43.075128231638573,3278,6115,6115,Old Sauk & Everglade (EB),This stop (#6115) is eastbound on the 6799 block of Old Sauk Rd farside Everglade Cir,43.075126,-89.497915,MMT,CMAD,0,,1,90,1,Old Sauk,6799,Everglade,"15, 68",,0,0,0,0,0,111
-89.484214088693207,43.105987248214859,3279,6120,6120,Century & Marina (WB),This stop (#6120) is westbound on the 6098 block of Century Ave nearside Marina Dr,43.105985,-89.484215,MMT,CMID,0,,3,270,1,Century,6098,Marina,"70, 72, 78",,0,0,0,0,0,111
-89.512683246212063,43.059711229499285,3280,6121,6121,D'Onofrio & Mineral Point (NB),This stop (#6121) is northbound on the 401 block of D'Onofrio Dr nearside Mineral Point Rd,43.059709,-89.512684,MMT,CMAD,0,,3,0,1,D'Onofrio,401,Mineral Point,15,,0,0,0,0,0,110
-89.525071152635206,43.090294228976923,3281,6122,6122,Greenway & J Q Hammons (WB),This stop (#6122) is westbound on the 8300 block of Greenway Blvd farside John Q Hammons Dr,43.090292,-89.525072,MMT,CMID,0,,1,270,0,Greenway,8300,J Q Hammons,"71, 73",,0,0,0,0,0,110
-89.513375276902394,43.050847230066104,3282,6123,6123,Watts & S Burberry (EB),This stop (#6123) is eastbound on the 7499 block of Watts Rd farside Burberry Dr (S),43.050845,-89.513376,MMT,CMAD,0,,1,90,1,Watts,7499,S Burberry,"63, 73",,0,0,0,0,0,111
-89.491530234332927,43.06062823857021,3283,6129,6129,Mineral Point & Yellowstone (EB),This stop (#6129) is eastbound on the 6499 block of Mineral Point Rd farside Yellowstone Dr (S),43.060626,-89.491531,MMT,CMAD,0,,1,90,1,Mineral Point,6499,Yellowstone,"14, 67",,0,0,0,0,0,111
-89.512784240149344,43.061528229776577,3284,6130,6130,Randolph & Westward (SB),This stop (#6130) is southbound on the 312 block of Randolph Dr nearside Westward Way,43.061526,-89.512785,MMT,CMAD,0,,3,180,1,Randolph,312,Westward,"14, 15",,0,0,0,0,0,110
-89.504643116607411,43.097121228078329,3285,6132,6132,University & Park Lawn (WB),This stop (#6132) is westbound on the 7100 block of University Ave farside Park Lawn Pl,43.097119,-89.504644,MMT,CMID,0,,1,270,0,University,7100,Park Lawn,71,,0,0,0,0,0,100
-89.502112114986744,43.097221228383141,3286,6134,6134,University & Park (WB),This stop (#6134) is westbound on the 7000 block of University Ave farside Park St,43.097219,-89.502113,MMT,CMID,0,,1,270,1,University,7000,Park,71,,0,0,0,0,0,100
-89.507309190714793,43.075292229131861,3287,6136,6136,Old Sauk & N Westfield (WB),This stop (#6136) is westbound on the 7198 block of Old Sauk Rd nearside Westfield Rd (N),43.07529,-89.50731,MMT,CMAD,0,,3,270,1,Old Sauk,7198,N Westfield,68,,0,0,0,0,0,001
-89.531013203299509,43.07655522892955,3288,6137,6137,Excelsior & Deming (EB),This stop (#6137) is eastbound on the 8599 block of Excelsior Dr farside Deming Way,43.076553,-89.531014,MMT,CMAD,0,,1,90,1,Excelsior,8599,Deming,68,,0,0,0,0,0,001
-89.529916145625052,43.09308322884764,3289,6138,6138,Market & Aspen (WB),This stop (#6138) is westbound on the 8450 block of Market St nearside Aspen Cmns,43.093081,-89.529917,MMT,CMID,0,,3,270,0,Market,8450,Aspen,71,,0,0,0,0,0,100
-89.520020209605903,43.072427229721036,3290,6140,6140,N High Point & Sauk Creek (SB),This stop (#6140) is southbound on the 500 block of High Point Rd (N) nearside Sauk Creek Dr,43.072425,-89.520021,MMT,CMAD,0,,3,180,1,N High Point,500,Sauk Creek,15,,0,0,0,0,0,110
-89.533782172003328,43.086401229115339,3291,6141,6141,Greenway & Gialamas (NB),This stop (#6141) is northbound on the 8599 block of Greenway Blvd farside Gialamas Way,43.086399,-89.533783,MMT,CMID,0,,1,0,0,Greenway,8599,Gialamas,"71, 73",,0,0,0,0,0,110
-89.494924116663682,43.096321234154459,3292,6142,6142,Mendota & University (WB),This stop (#6142) is westbound on the 6698 block of Mendota Ave nearside University Ave,43.096319,-89.494925,MMT,CMID,0,,3,270,0,Mendota,6698,University,"71, 78",,0,0,0,0,0,101
-89.502514095838791,43.102844227505649,3293,6146,6146,Park & Pheasant Branch (SB),This stop (#6146) is southbound on the 2500 block of Park St adjacent Pheasant Branch Path,43.102842,-89.502515,MMT,CMID,0,,2,180,0,Park,2500,Pheasant Branch,"70, 72",,0,0,0,0,0,110
-89.489610131626733,43.092420241307536,3294,6147,6147,University & Gateway (NB),This stop (#6147) is northbound on the 6298 block of University Ave nearside Gateway St (N),43.092418,-89.489611,MMT,CMID,0,,3,0,1,University,6298,Gateway,"71, 72",,0,0,0,0,0,100
-89.493672211209599,43.06761923657411,3295,6148,6148,Inner & Yellowstone (WB),This stop (#6148) is westbound on the 6500 block of Inner Dr farside Yellowstone Dr (N),43.067617,-89.493673,MMT,CMAD,0,,1,270,1,Inner,6500,Yellowstone,14,,0,0,0,0,0,110
-89.524673187381296,43.079765228906254,3296,6149,6149,Excelsior & Fourier (EB),This stop (#6149) is eastbound on the 8199 block of Excelsior Dr farside Fourier Dr,43.079763,-89.524674,MMT,CMAD,0,,1,90,1,Excelsior,8199,Fourier,"15, 68, 73",,0,0,1,0,0,111
-89.517051133042926,43.094660228216128,3297,6150,6150,Terrace & N High Point (WB),This stop (#6150) is westbound on the 7798 block of Terrace Ave nearside High Point Rd (N),43.094658,-89.517052,MMT,CMID,0,,3,270,0,Terrace,7798,N High Point,"70, 71, 78",,0,0,0,0,0,111
-89.481483234969829,43.060659249710035,3298,6151,6151,Mineral Point & Cuna (EB),This stop (#6151) is eastbound on the 5707 block of Mineral Point Rd opposite Cuna Driveway,43.060657,-89.481484,MMT,CMAD,0,,4,90,1,Mineral Point,5707,Cuna,"14, 67",,1,0,1,0,0,111
-89.483413260615379,43.052476246978614,3299,6154,6154,Odana & Smart Motors (WB),This stop (#6154) is westbound on the 5900 block of Odana Rd opposite Smart Motors,43.052474,-89.483414,MMT,CMAD,0,,4,270,0,Odana,5900,Smart Motors,"63, 73",,0,0,0,0,0,111
-89.508681119207509,43.097029228300144,3300,6156,6156,University & Middleton (WB),This stop (#6156) is westbound on the 7400 block of University Ave farside Middleton St,43.097027,-89.508682,MMT,CMID,0,,1,270,0,University,7400,Middleton,71,,0,0,0,0,0,100
-89.506543088153052,43.105975227787248,3301,6157,6157,Donna & Northbrook (EB),This stop (#6157) is eastbound on the 7299 block of Donna Dr farside Northbrook Dr,43.105973,-89.506544,MMT,CMID,0,,1,90,0,Donna,7299,Northbrook,"70, 72",,0,0,0,0,0,110
-89.502621247238494,43.056861229543976,3302,6159,6159,S Gammon & Odana (NB),This stop (#6159) is northbound on the 499 block of Gammon Rd (S) farside Odana Rd,43.056859,-89.502622,MMT,CMAD,0,,1,0,1,S Gammon,499,Odana,"63, 67",,0,0,1,0,0,111
-89.481569187901371,43.075136250408072,3303,6161,6161,Old Sauk & Crestwood (EB),This stop (#6161) is eastbound on the 5909 block of Old Sauk Rd opposite Crestwood Es Driveway,43.075134,-89.48157,MMT,CMAD,0,,4,90,0,Old Sauk,5909,Crestwood,"15, 68",,0,0,0,0,0,111
-89.532011130101736,43.098319228539182,3304,6163,6163,Parview & Murphy (NB),This stop (#6163) is northbound on the 2199 block of Parview Rd nearside Murphy Dr,43.098317,-89.532012,MMT,CMID,0,,3,0,0,Parview,2199,Murphy,72,,0,0,0,0,0,100
-89.52557524381703,43.063658229949965,3305,6164,6164,Driveway & Prairie Towne (WB),This stop (#6164) is westbound on the 241 block of Prairie Towne Driveway adjacent Prairie Towne Center,43.063656,-89.525576,MMT,PRIV,0,,2,270,1,Driveway,241,Prairie Towne,"63, 68",,1,0,1,0,0,001
-89.524275194237632,43.077993229502013,3306,6165,6165,Excelsior & Associated Bank (NB),This stop (#6165) is northbound on the 8040 block of Excelsior Dr adjacent Associated Bank Bldg,43.077991,-89.524276,MMT,CMAD,0,,2,0,1,Excelsior,8040,Associated Bank,"15, 68, 73",,0,0,0,0,0,111
-89.517930247566042,43.060719229966089,3307,6166,6166,Mineral Point & S High Point (WB),This stop (#6166) is westbound on the 7700 block of Mineral Point Rd farside High Point Rd (S),43.060717,-89.517931,MMT,CMAD,0,,1,270,0,Mineral Point,7700,S High Point,15,,0,0,0,0,0,110
-89.488127093723207,43.104087243108381,3308,6167,6167,Century & Allen (EB),This stop (#6167) is eastbound on the 6201 block of Century Ave nearside Allen Blvd,43.104085,-89.488128,MMT,CMID,0,,3,90,1,Century,6201,Allen,"70, 72, 78",,0,0,0,0,0,111
-89.486216257823088,43.053450243738595,3309,6169,6169,Odana & Research Park (EB),This stop (#6169) is eastbound on the 6101 block of Odana Rd nearside Research Park Blvd,43.053448,-89.486217,MMT,CMAD,0,,3,90,1,Odana,6101,Research Park,"63, 73",,0,0,1,0,0,111
-89.485487126335286,43.094025245808716,3310,6171,6171,Allen & Marshall Park (NB),This stop (#6171) is northbound on the 2053 block of Allen Blvd adjacent Marshall Park,43.094023,-89.485488,MMT,CMID,0,,2,0,1,Allen,2053,Marshall Park,"70, 71, 72, 78",,0,0,0,0,0,111
-89.524418205033371,43.074761229763574,3311,6173,6173,Old Sauk & Excelsior (EB),This stop (#6173) is eastbound on the 8199 block of Old Sauk Rd farside Excelsior Dr,43.074759,-89.524419,MMT,CMAD,0,,1,90,1,Old Sauk,8199,Excelsior,"15, 68",,0,0,0,0,0,111
-89.502200182122067,43.076719228310111,3312,6176,6176,Old Sauk & N Gammon (WB),This stop (#6176) is westbound on the 6998 block of Old Sauk Rd nearside Gammon Rd (N),43.076717,-89.502201,MMT,CMAD,0,,3,270,1,Old Sauk,6998,N Gammon,"15, 68",,0,0,0,0,0,111
-89.493323104029159,43.100593236503776,3313,6177,6177,Branch & Maywood (NB),This stop (#6177) is northbound on the 2401 block of Branch St farside Maywood Ave,43.100591,-89.493324,MMT,CMID,0,,1,0,1,Branch,2401,Maywood,"70, 72",,0,0,0,0,0,110
-89.526765177362051,43.083452229033668,3314,6180,6180,Fourier & La Petite (SB),This stop (#6180) is southbound on the 1222 block of Fourier Dr adjacent La Petite Academy,43.08345,-89.526766,MMT,CMAD,0,,2,180,1,Fourier,1222,La Petite,73,,0,0,0,0,0,110
-89.53650311374146,43.103857228451375,3315,6182,6182,Pleasant View & Fairway (SB),This stop (#6182) is southbound on the 2600 block of Pleasant View Rd nearside Fairway Pl,43.103855,-89.536504,MMT,CMID,0,,3,180,0,Pleasant View,2600,Fairway,72,,0,0,0,0,0,100
-89.486352257010608,43.053674243569603,3316,6188,6188,Odana & Research Park (WB),This stop (#6188) is westbound on the 6100 block of Odana Rd farside Research Park Blvd,43.053672,-89.486353,MMT,CMAD,0,,1,270,1,Odana,6100,Research Park,"63, 73",,0,0,1,0,0,111
-89.518172199976263,43.07486422937685,3317,6189,6189,Old Sauk & N High Point (EB),This stop (#6189) is eastbound on the 7899 block of Old Sauk Rd farside High Point Rd (N),43.074862,-89.518173,MMT,CMAD,0,,1,90,1,Old Sauk,7899,N High Point,"15, 68",,1,0,1,0,0,111
-89.501876117882787,43.09627222820113,3318,6192,6192,Park & Elmwood (SB),This stop (#6192) is southbound on the 1900 block of Park St nearside Elmwood Ave,43.09627,-89.501877,MMT,CMID,0,,3,180,0,Park,1900,Elmwood,"70, 71, 78",,0,0,0,0,0,111
-89.522464270411433,43.054896230071108,3319,6193,6193,Watts & Commerce (EB),This stop (#6193) is eastbound on the 8199 block of Watts Rd farside Commerce Dr,43.054894,-89.522465,MMT,CMAD,0,,1,90,1,Watts,8199,Commerce,"63, 73",,0,0,0,0,0,111
-89.508911132708576,43.093000228378976,3320,6196,6196,Middleton & South (SB),This stop (#6196) is southbound on the 1698 block of Middleton St farside South Ave,43.092998,-89.508912,MMT,CMID,0,,1,180,0,Middleton,1698,South,"70, 71, 78",,0,0,0,0,0,111
-89.502165210297036,43.068321228993995,3321,6197,6197,Colony & S Gammon (EB),This stop (#6197) is eastbound on the 6999 block of Colony Dr farside Gammon Rd (S),43.068319,-89.502166,MMT,CMAD,0,,1,90,1,Colony,6999,S Gammon,14,,0,0,0,0,0,110
-89.506982272896948,43.0503682298623,3322,6199,6199,Watts & Walmart (EB),This stop (#6199) is eastbound on the 7199 block of Watts Rd opposite Walmart Driveway,43.050366,-89.506983,MMT,CMAD,0,,4,90,1,Watts,7199,Walmart,"63, 73",,0,0,0,0,0,111
-89.514141276626404,43.051160229829364,3323,6204,6204,Watts & N Burberry (WB),This stop (#6204) is westbound on the 7500 block of Watts Rd farside Burberry Dr (N),43.051158,-89.514142,MMT,CMAD,0,,1,270,0,Watts,7500,N Burberry,"63, 73",,0,0,0,0,0,111
-89.486076096261399,43.103488245876882,3324,6205,6205,Allen & Century (NB),This stop (#6205) is northbound on the 2601 block of Allen Blvd nearside Century Ave,43.103486,-89.486077,MMT,CMID,0,,3,0,0,Allen,2601,Century,"70, 72, 78",,0,0,0,0,0,111
-89.498009084332992,43.106114230185618,3325,6207,6207,Century & Donna (EB),This stop (#6207) is eastbound on the 6799 block of Century Ave farside Donna Dr,43.106112,-89.49801,MMT,CMID,0,,1,90,1,Century,6799,Donna,"70, 72, 78",,0,0,0,0,0,111
-89.504386111807918,43.098464228413654,3326,6208,6208,Park Lawn & Franklin (SB),This stop (#6208) is southbound on the 2100 block of Park Lawn Pl nearside Franklin Ave,43.098462,-89.504387,MMT,CMID,0,,3,180,0,Park Lawn,2100,Franklin,"70, 72",,0,0,0,0,0,110
-89.495529117481667,43.096160233814345,3327,6213,6213,University & Branch (EB),This stop (#6213) is eastbound on the 6699 block of University Ave farside Branch St,43.096158,-89.49553,MMT,CMID,0,,1,90,1,University,6699,Branch,"71, 72",,0,0,1,0,0,100
-89.533079195786499,43.079185229707093,3328,6218,6218,Deming & John Deere (SB),This stop (#6218) is southbound on the 998 block of Deming Way opposite John Deere Credit,43.079183,-89.53308,MMT,CMAD,0,,4,180,1,Deming,998,John Deere,73,,0,0,0,0,0,110
-89.49586924828786,43.056185233609888,3329,6223,6223,Odana & Grand Canyon (EB),This stop (#6223) is eastbound on the 6699 block of Odana Rd farside Grand Canyon Dr,43.056183,-89.49587,MMT,CMAD,0,,1,90,1,Odana,6699,Grand Canyon,"63, 73",,0,0,1,0,0,111
-89.527553126000072,43.098538228750918,3330,6226,6226,Murphy & Eagle (WB),This stop (#6226) is westbound on the 8400 block of Murphy Dr nearside Eagle Dr,43.098536,-89.527554,MMT,CMID,0,,3,270,0,Murphy,8400,Eagle,72,,0,0,0,0,0,100
-89.522551124007904,43.098309228370816,3331,6231,6231,Deming & Murphy (NB),This stop (#6231) is northbound on the 2201 block of Deming Way farside Murphy Dr,43.098307,-89.522552,MMT,CMID,0,,1,0,0,Deming,2201,Murphy,"70, 71, 72, 78",,0,0,0,0,0,101
-89.529573083519111,43.111473227612983,3332,6232,6232,Airport & Deming (WB),This stop (#6232) is westbound on the 8400 block of Airport Rd farside Deming Way,43.111471,-89.529574,MMT,CMID,0,,1,270,0,Airport,8400,Deming,72,,0,0,0,0,0,100
-89.488704187144606,43.075106241513836,3333,6233,6233,Old Sauk & Ozark (EB),This stop (#6233) is eastbound on the 6299 block of Old Sauk Rd farside Ozark Trl,43.075104,-89.488705,MMT,CMAD,0,,1,90,1,Old Sauk,6299,Ozark,"15, 68",,0,0,0,0,0,111
-89.521044270821491,43.054333230139839,3334,6237,6237,Watts & Princeton Club (EB),This stop (#6237) is eastbound on the 8051 block of Watts Rd opposite Princeton Club,43.054331,-89.521045,MMT,CMAD,0,,4,90,0,Watts,8051,Princeton Club,"63, 73",,0,0,0,0,0,111
-89.511634116830052,43.098236228240268,3335,6238,6238,Parmenter & Franklin (SB),This stop (#6238) is southbound on the 2100 block of Parmenter St nearside Franklin Ave,43.098234,-89.511635,MMT,CMID,0,,3,180,1,Parmenter,2100,Franklin,71,,0,0,0,0,0,100
-89.486632226621126,43.063137244108745,3336,6239,6239,Masthead & Island (EB),This stop (#6239) is eastbound on the 6201 block of Masthead Dr nearside Island Dr,43.063135,-89.486633,MMT,CMAD,0,,3,90,1,Masthead,6201,Island,14,,0,0,0,0,0,110
-89.526616143231763,43.093245229118459,3337,6240,6240,Deming & Market (SB),This stop (#6240) is southbound on the 1700 block of Deming Way nearside Market St,43.093243,-89.526617,MMT,CMID,0,,3,180,1,Deming,1700,Market,71,,0,0,0,0,0,100
-89.491598252840134,43.054907239030165,3338,6241,6241,Odana & Potomac (EB),This stop (#6241) is eastbound on the 6501 block of Odana Rd nearside Potomac Ln,43.054905,-89.491599,MMT,CMAD,0,,3,90,1,Odana,6501,Potomac,"63, 73",,0,0,0,0,0,111
-89.477676157754473,43.08464625521804,3339,6243,6243,University & Capital (NB),This stop (#6243) is northbound on the 5600 block of University Ave farside Capital Ave,43.084644,-89.477677,MMT,CMAD,0,,1,0,1,University,5600,Capital,"70, 71, 72, 78",,0,0,0,0,0,111
-89.493236224421622,43.063420236182353,3340,6244,6244,Offshore & Yellowstone (WB),This stop (#6244) is westbound on the 6498 block of Offshore Dr nearside Yellowstone Dr (S),43.063418,-89.493237,MMT,CMAD,0,,3,270,1,Offshore,6498,Yellowstone,14,,0,0,0,0,0,110
-89.509321192147965,43.075040228606916,3341,6245,6245,Old Sauk & Saukdale (EB),This stop (#6245) is eastbound on the 7215 block of Old Sauk Rd nearside Saukdale Way,43.075038,-89.509322,MMT,CMAD,0,,3,90,1,Old Sauk,7215,Saukdale,"15, 68",,0,0,0,0,0,111
-89.525044186200887,43.080293229046262,3342,6246,6246,Excelsior & Fourier (WB),This stop (#6246) is westbound on the 8200 block of Excelsior Dr farside Fourier Dr,43.080291,-89.525045,MMT,CMAD,0,,1,270,1,Excelsior,8200,Fourier,"15, 68",,0,0,1,0,0,101
-89.512500241442822,43.061287229358044,3343,6253,6253,Randolph & Westward (NB),This stop (#6253) is northbound on the 313 block of Randolph Dr nearside Westward Way,43.061285,-89.512501,MMT,CMAD,0,,3,0,1,Randolph,313,Westward,"14, 15",,0,0,0,0,0,110
-89.511051092430009,43.105587227605156,3344,6256,6256,Parmenter & Donna (SB),This stop (#6256) is southbound on the 2898 block of Parmenter St farside Donna Dr,43.105585,-89.511052,MMT,CMID,0,,1,180,1,Parmenter,2898,Donna,78,,0,0,0,0,0,001
-89.529425191936966,43.079466229217246,3345,6258,6258,Excelsior & John Deere (SB),This stop (#6258) is southbound on the 8400 block of Excelsior Dr adjacent John Deere Credit,43.079464,-89.529426,MMT,CMAD,0,,2,180,1,Excelsior,8400,John Deere,"15, 68",,0,0,0,0,0,101
-89.523436134439265,43.095246228974503,3346,6261,6261,Deming & Terrace (NB),This stop (#6261) is northbound on the 1851 block of Deming Way nearside Terrace Ave,43.095244,-89.523437,MMT,CMID,0,,3,0,0,Deming,1851,Terrace,"70, 71, 72, 78",,0,0,0,0,0,101
-89.510639071569202,43.111702227265532,3347,6264,6264,Century & Parmenter (WB),This stop (#6264) is westbound on the 7500 block of Century Ave farside Parmenter St,43.1117,-89.51064,MMT,CMID,0,,1,270,0,Century,7500,Parmenter,72,,0,0,0,0,0,100
-89.48104326349042,43.051653249154988,3348,6265,6265,Tokay & Odana (NB),This stop (#6265) is northbound on the 5799 block of Tokay Blvd farside Odana Rd,43.051651,-89.481044,MMT,CMAD,0,,1,0,0,Tokay,5799,Odana,"3, 63, 73",,0,0,0,0,0,111
-89.491783251138642,43.055122238506641,3349,6266,6266,Odana & Potomac (WB),This stop (#6266) is westbound on the 6500 block of Odana Rd farside Potomac Ln,43.05512,-89.491784,MMT,CMAD,0,,1,270,1,Odana,6500,Potomac,"63, 73",,0,0,0,0,0,111
-89.50287326863338,43.050514229853874,3350,6269,6269,S Gammon & Watts (NB),This stop (#6269) is northbound on the 699 block of Gammon Rd (S) farside Watts Rd,43.050512,-89.502874,MMT,CMAD,0,,1,0,1,S Gammon,699,Watts,"55, 63, 73",,0,0,1,0,0,111
-89.540369138681442,43.097139228650931,3351,6270,6270,Pinehurst & S Greenview (SB),This stop (#6270) is southbound on the 2050 block of Pinehurst Dr nearside Greenview Dr (S),43.097137,-89.54037,MMT,CMID,0,,3,180,0,Pinehurst,2050,S Greenview,72,,0,0,0,0,0,100
-89.524064225586159,43.068709229959403,3352,6273,6273,Junction & Harbour Town (NB),This stop (#6273) is northbound on the 401 block of Junction Rd farside Harbour Town Dr,43.068707,-89.524065,MMT,CMAD,0,,1,0,1,Junction,401,Harbour Town,"15, 68, 73",,0,0,0,0,0,111
-89.512430231161019,43.064017229876271,3353,6277,6277,Randolph & Tree (NB),This stop (#6277) is northbound on the 201 block of Randolph Dr nearside Tree Ln,43.064015,-89.512431,MMT,CMAD,0,,3,0,1,Randolph,201,Tree,"14, 15",,0,0,0,0,0,110
-89.513816255170084,43.057490229371872,3354,6281,6281,West Towne & D'Onofrio (EB),This stop (#6281) is eastbound on the 7499 block of West Towne Way farside D'Onofrio Dr,43.057488,-89.513817,MMT,CMAD,0,,1,90,1,West Towne,7499,D'Onofrio,67,,0,0,1,0,0,111
-89.534473173759849,43.085997228854431,3355,6282,6282,Greenway & Gialamas (SB),This stop (#6282) is southbound on the 8600 block of Greenway Blvd farside Gialamas Way,43.085995,-89.534474,MMT,CMID,0,,1,180,0,Greenway,8600,Gialamas,71,,0,0,0,0,0,100
-89.498393082258829,43.106687229665162,3356,6288,6288,Century & Donna (WB),This stop (#6288) is westbound on the 6800 block of Century Ave farside Donna Dr,43.106685,-89.498394,MMT,CMID,0,,1,270,1,Century,6800,Donna,"70, 72, 78",,0,0,0,0,0,111
-89.485668141819005,43.089289245309097,3357,6291,6291,University & Allen (EB),This stop (#6291) is eastbound on the 6199 block of University Ave farside Allen Blvd,43.089287,-89.485669,MMT,CMAD,0,,1,90,1,University,6199,Allen,"70, 71, 72, 78",,0,0,1,0,0,111
-89.480354256929346,43.053587250759378,3358,6296,6296,Tokay & U W Research Park (WB),This stop (#6296) is westbound on the 5750 block of Tokay Blvd adjacent U W Research Park,43.053585,-89.480355,MMT,CMAD,0,,2,270,0,Tokay,5750,U W Research Park,"3, 63, 73",,0,0,0,0,0,111
-89.488817225656888,43.063279241312955,3359,6300,6300,Nautilus & Offshore (SB),This stop (#6300) is southbound on the 298 block of Nautilus Dr nearside Offshore Dr,43.063277,-89.488818,MMT,CMAD,0,,3,180,1,Nautilus,298,Offshore,14,,0,0,0,0,0,110
-89.485736118768443,43.096568245831811,3360,6301,6301,Allen & Mendota (NB),This stop (#6301) is northbound on the 2201 block of Allen Blvd farside Mendota Ave,43.096566,-89.485737,MMT,CMID,0,,1,0,0,Allen,2201,Mendota,"70, 72, 78",,0,0,0,0,0,111
-89.523720134385201,43.09547922832845,3361,6304,6304,Deming & Terrace (SB),This stop (#6304) is southbound on the 1850 block of Deming Way nearside Terrace Ave,43.095477,-89.523721,MMT,CMID,0,,3,180,0,Deming,1850,Terrace,"70, 71, 72, 78",,0,0,0,0,0,111
-89.493742105781621,43.100100235704623,3362,6306,6306,Branch & Maywood (SB),This stop (#6306) is southbound on the 2398 block of Branch St farside Maywood Ave,43.100098,-89.493743,MMT,CMID,0,,1,180,1,Branch,2398,Maywood,"70, 72",,0,0,0,0,0,110
-89.509277176897172,43.079884228481021,3363,6309,6309,Sawmill & N Westfield (EB),This stop (#6309) is eastbound on the 7399 block of Sawmill Rd farside Westfield Rd (N),43.079882,-89.509278,MMT,CMAD,0,,1,90,0,Sawmill,7399,N Westfield,15,,0,0,0,0,0,110
-89.527298144537198,43.093094228919234,3364,6311,6311,Market & Deming (EB),This stop (#6311) is eastbound on the 8401 block of Market St nearside Deming Way,43.093092,-89.527299,MMT,CMID,0,,3,90,0,Market,8401,Deming,71,,0,0,0,0,0,100
-89.516841132751267,43.094436228763122,3365,6313,6313,Terrace & N High Point (EB),This stop (#6313) is eastbound on the 7799 block of Terrace Ave farside High Point Rd (N),43.094434,-89.516842,MMT,CMID,0,,1,90,0,Terrace,7799,N High Point,"70, 71, 78",,0,0,0,0,0,111
-89.486542106890028,43.10022024494139,3366,6318,6318,Allen & Maywood (SB),This stop (#6318) is southbound on the 2398 block of Allen Blvd farside Maywood Ave,43.100218,-89.486543,MMT,CMID,0,,1,180,0,Allen,2398,Maywood,"70, 72, 78",,0,0,0,0,0,111
-89.483697260526185,43.052368246603251,3367,6319,6319,Odana & Smart Motors (EB),This stop (#6319) is eastbound on the 5901 block of Odana Rd adjacent Smart Motors,43.052366,-89.483698,MMT,CMAD,0,,2,90,1,Odana,5901,Smart Motors,"63, 73",,0,0,0,0,0,111
-89.490203130993535,43.092393240605908,3368,6322,6322,University & Gateway (SB),This stop (#6322) is southbound on the 6301 block of University Ave nearside Gateway St (N),43.092391,-89.490204,MMT,CMID,0,,3,180,1,University,6301,Gateway,"71, 72",,1,0,1,0,0,100
-89.496684211363501,43.067429233165583,3369,6323,6323,Inner & Gettysburg (EB),This stop (#6323) is eastbound on the 6699 block of Inner Dr farside Gettysburg Dr,43.067427,-89.496685,MMT,CMAD,0,,1,90,0,Inner,6699,Gettysburg,14,,0,0,0,0,0,110
-89.508165144303902,43.089267227921923,3370,6325,6325,Voss & Middleton (EB),This stop (#6325) is eastbound on the 7399 block of Voss Pkwy farside Middleton St,43.089265,-89.508166,MMT,CMID,0,,1,90,0,Voss,7399,Middleton,"70, 71, 78",,0,0,0,0,0,111
-89.482753148246658,43.087562249187393,3371,6326,6326,University & Heim (SB),This stop (#6326) is southbound on the 5999 block of University Ave farside Heim Ave,43.08756,-89.482754,MMT,CMAD,0,,1,180,1,University,5999,Heim,"70, 71, 72, 78",,0,0,0,0,0,111
-89.507358189849697,43.075444228902249,3372,6327,6327,N Westfield & Old Sauk (NB),This stop (#6327) is northbound on the 701 block of Westfield Rd (N) farside Old Sauk Rd,43.075442,-89.507359,MMT,CMAD,0,,1,0,0,N Westfield,701,Old Sauk,15,,0,0,0,0,0,110
-89.497528233250563,43.060938231824984,3373,6330,6330,Mineral Point & Grand Canyon (WB),This stop (#6330) is westbound on the 6700 block of Mineral Point Rd farside Grand Canyon Dr,43.060936,-89.497529,MMT,CMAD,0,,1,270,1,Mineral Point,6700,Grand Canyon,"14, 67",,0,0,0,0,0,111
-89.500762233183679,43.060909229485596,3374,6332,6332,Mineral Point & Memorial High (WB),This stop (#6332) is westbound on the 6900 block of Mineral Point Rd adjacent Memorial High,43.060907,-89.500763,MMT,CMAD,0,,2,270,1,Mineral Point,6900,Memorial High,"14, 67",,0,0,0,0,0,111
-89.531841203213247,43.076751229467746,3375,6334,6334,Heartland & Deming (WB),This stop (#6334) is westbound on the 798 block of Heartland Trl farside Deming Way,43.076749,-89.531842,MMT,CMAD,0,,1,270,1,Heartland,798,Deming,"68, 73",,0,0,0,0,0,111
-89.49289712312536,43.094738236667233,3376,6335,6335,University & Lakeview (NB),This stop (#6335) is northbound on the 6500 block of University Ave farside Lakeview Ave,43.094736,-89.492898,MMT,CMID,0,,1,0,1,University,6500,Lakeview,"71, 72",,0,0,0,0,0,100
-89.527747161599805,43.08823222863353,3377,6336,6336,Deming & Holiday (SB),This stop (#6336) is southbound on the 1350 block of Deming Way farside Holiday Ave,43.08823,-89.527748,MMT,CMID,0,,1,180,0,Deming,1350,Holiday,73,,0,0,0,0,0,110
-89.504347116840734,43.096907228021152,3378,6337,6337,University & Park Lawn (EB),This stop (#6337) is eastbound on the 7101 block of University Ave nearside Park Lawn Pl,43.096905,-89.504348,MMT,CMID,0,,3,90,0,University,7101,Park Lawn,71,,0,0,0,0,0,100
-89.517828255470391,43.058257230074013,3379,6338,6338,S High Point & Big Sky (SB),This stop (#6338) is southbound on the 450 block of High Point Rd (S) farside Big Sky Dr,43.058255,-89.517829,MMT,CMAD,0,,1,180,1,S High Point,450,Big Sky,15,,0,0,0,0,0,110
-89.489001186422442,43.075321241720935,3380,6340,6340,Old Sauk & Ozark (WB),This stop (#6340) is westbound on the 6300 block of Old Sauk Rd nearside Ozark Trl,43.075319,-89.489002,MMT,CMAD,0,,3,270,1,Old Sauk,6300,Ozark,"15, 68",,0,0,0,0,0,111
-89.531369208751428,43.075015229592474,3381,6342,6342,Old Sauk & Samuel (WB),This stop (#6342) is westbound on the 8600 block of Old Sauk Rd farside Samuel Dr,43.075013,-89.53137,MMT,CMAD,0,,1,270,0,Old Sauk,8600,Samuel,"68, 73",,0,0,0,0,0,111
-89.508536144747069,43.089571228958249,3382,6345,6345,Middleton & Sweeney (NB),This stop (#6345) is northbound on the 1401 block of Middleton St farside Sweeney Dr,43.089569,-89.508537,MMT,CMID,0,,1,0,0,Middleton,1401,Sweeney,"70, 71, 78",,0,0,0,0,0,111
-89.512265243520361,43.060418229847222,3383,6349,6349,Mineral Point & D'Onofrio (EB),This stop (#6349) is eastbound on the 7499 block of Mineral Point Rd farside D'Onofrio Dr,43.060416,-89.512266,MMT,CMAD,0,,1,90,0,Mineral Point,7499,D'Onofrio,14,,0,0,0,0,0,110
-89.504004246942202,43.057425229454594,3384,6350,6350,W Towne Ring & W Towne Mall (SB),This stop (#6350) is southbound on the 500 block of West Towne Ring adjacent West Towne Mall,43.057423,-89.504005,MMT,PRIV,0,,2,180,1,W Towne Ring,500,W Towne Mall,"63, 67",,1,0,1,1,0,111
-89.493075225216259,43.06319623704416,3385,6351,6351,Offshore & Yellowstone (EB),This stop (#6351) is eastbound on the 6499 block of Offshore Dr farside Yellowstone Dr (S),43.063194,-89.493076,MMT,CMAD,0,,1,90,1,Offshore,6499,Yellowstone,14,,0,0,0,0,0,110
-89.53024515609637,43.090406229308819,3386,6354,6354,Greenway & Aspen (WB),This stop (#6354) is westbound on the 8450 block of Greenway Blvd farside Aspen Cmns,43.090404,-89.530246,MMT,CMID,0,,1,270,0,Greenway,8450,Aspen,"71, 73",,0,0,0,0,0,110
-89.532538164951987,43.087996228718119,3387,6355,6355,Greenway & Deer Creek (NB),This stop (#6355) is northbound on the 8501 block of Greenway Blvd adjacent Deer Creek Apts,43.087994,-89.532539,MMT,CMID,0,,2,0,0,Greenway,8501,Deer Creek,"71, 73",,0,0,0,0,0,110
-89.499794246364687,43.056505229652394,3388,6357,6357,Odana & Burlington Coat (EB),This stop (#6357) is eastbound on the 6725 block of Odana Rd adjacent Burlington Coat,43.056503,-89.499795,MMT,CMAD,0,,2,90,1,Odana,6725,Burlington Coat,"63, 73",,0,0,0,0,0,111
-89.51464007509216,43.111332227630982,3389,6359,6359,Century & Laura (EB),This stop (#6359) is eastbound on the 7701 block of Century Ave nearside Laura Ln,43.11133,-89.514641,MMT,CMID,0,,3,90,0,Century,7701,Laura,72,,0,0,0,0,0,100
-89.513035104089198,43.102416227573734,3390,6363,6363,Discovery & Parmenter (EB),This stop (#6363) is eastbound on the 7601 block of Discovery Dr nearside Parmenter St,43.102414,-89.513036,MMT,CMID,0,,3,90,1,Discovery,7601,Parmenter,"70, 71, 72, 78",,0,0,0,0,0,101
-89.504299145909428,43.088070228373958,3391,6364,6364,Fortune & Sweeney (WB),This stop (#6364) is westbound on the 7098 block of Fortune Dr nearside Sweeney Dr,43.088068,-89.5043,MMT,CMID,0,,3,270,0,Fortune,7098,Sweeney,"70, 71, 78",,0,0,1,0,0,111
-89.525081213974985,43.07217322932518,3392,6365,6365,Junction & City Center W (NB),This stop (#6365) is northbound on the 535 block of Junction Rd farside City Center West,43.072171,-89.525082,MMT,CMAD,0,,1,0,1,Junction,535,City Center W,"15, 68, 73",,1,0,1,0,0,111
-89.525849237450785,43.065350230361879,3393,6368,6368,Junction & Pick N Save (SB),This stop (#6368) is southbound on the 266 block of Junction Rd opposite Pick N Save,43.065348,-89.52585,MMT,CMAD,0,,4,180,1,Junction,266,Pick N Save,"15, 68, 73",,0,0,0,0,0,111
-89.528820084414363,43.111152228006262,3394,6369,6369,Airport & Deming (EB),This stop (#6369) is eastbound on the 8399 block of Airport Rd farside Deming Way,43.11115,-89.528821,MMT,CMID,0,,1,90,0,Airport,8399,Deming,72,,0,0,0,0,0,100
-89.507433087690245,43.106189227874104,3395,6372,6372,Donna & Northbrook (WB),This stop (#6372) is westbound on the 7300 block of Donna Dr farside Northbrook Dr,43.106187,-89.507434,MMT,CMID,0,,1,270,1,Donna,7300,Northbrook,"70, 78",,0,0,0,0,0,011
-89.496968246837724,43.056748232836682,3396,6382,6382,Odana & Grand Canyon (WB),This stop (#6382) is westbound on the 6700 block of Odana Rd farside Grand Canyon Dr,43.056746,-89.496969,MMT,CMAD,0,,1,270,1,Odana,6700,Grand Canyon,"63, 73",,0,0,0,0,0,111
-89.52724520611666,43.074705229518344,3397,6385,6385,Old Sauk & Junction (EB),This stop (#6385) is eastbound on the 8301 block of Old Sauk Rd nearside Junction Rd,43.074703,-89.527246,MMT,CMAD,0,,3,90,0,Old Sauk,8301,Junction,"68, 73",,0,0,0,0,0,111
-89.501495075655697,43.108950227368673,3398,6388,6388,Century & Park (WB),This stop (#6388) is westbound on the 6998 block of Century Ave nearside Park St,43.108948,-89.501496,MMT,CMID,0,,3,270,0,Century,6998,Park,"70, 72, 78",,0,0,0,0,0,111
